id,addres,lat,lng
1,ssk擙@kTU|P,35.0322963,135.7218144
2,ssk掇|ΒPVAlivio1F,35.0500584,135.7482487
3,sskVQWT|PPP,35.0378413,135.7625105
4,sskߊ}kV_XQSԒnP,35.037518,135.7325566
5,ssk揬R29Ԓn16E]EN}O`1F,35.0392328,135.759514
6,ssk掇쐼䏊cTWԒnQ,35.0406429,135.7530771
7,sskߊ}䏊mRPԒnANGhtPK,35.0398108,135.7338035
8,sskђ6-9,35.0496892,135.7360291
9,ssk掇|Ŗ{URԂR̂Q@xr[kR1K,35.0496363,135.7502546
10,ssk掇|{VԒn,35.0512563,135.7512884
11,ssk掇|Ŗ{QXԒn,35.0500527,135.7498869
12,ssk掇|꒬USԒn,35.0463897,135.7501954
13,ssk掇䏊cTQԒn,35.0420492,135.7520145
14,ssk掇|Ŗ{24,35.0496409,135.7493619
15,ssk掇|~mؒ17Ԓn5,35.0482342,135.7524872
16,ssk揬R͌TOEChxkHPK,35.0438753,135.7609703
17,ssk΍cRQ|P,35.0542103,135.764524
18,sskΒPO,35.0636843,135.7487256
19,ssk΍rVRԒnfBJ[kRPK,35.0540048,135.7596683
20,sskΊP_XWԂV,35.0513793,135.7645656
21,ssk揬R͌UW,35.0439137,135.7615531
22,ssko_HUPTԒn̂P,35.0371572,135.7655016
23,ssk掇||aSSԒnVr@eig`,35.0534714,135.7484953
24,ssk掇|m{TUԒn,35.0481087,135.748841
25,ssk΍r73fBJ[kR2F,35.0538774,135.7596654
26,ssk揬RqTOԒn,35.0465552,135.7564136
27,ssk掇哿SX|Rn斧^PAZ^[Qe,35.0455439,135.7461444
28,ssk掇쉺zR55-1]PF,35.0396619,135.7474186
29,ssk揬RqTOԒn,35.0465552,135.7564136
30,ssk_PPVU,35.1130679,135.7219716
31,ssk揬R͌PPQ,35.0434627,135.7614644
32,ssk掇_щ@18ԒnP,35.0404188,135.7486291
33,ssk掇쐼쒬60Ԓn5,35.0407608,135.7426726
34,ssk掇MVW|U,35.0377463,135.7448928
35,ssk掇_щ@PQ,35.0397633,135.7485633
36,ssk掇zR5Ԓn,35.0404835,135.7462663
37,ssk掇MVWԒn̂PT,35.037935,135.7449069
38,ssk掇_щ@18-1s̓Z^[rQK,35.0404188,135.7486291
39,sskƔnʎR220Ԓn,35.0379216,135.7579782
40,ssk揬RSSԒnVZƔnPK,35.0385397,135.7590956
41,ssk揬RaRP,35.0383427,135.7552366
42,ssk掇쉺_`131vCkHr1e,35.0407655,135.7395576
43,ssk掇쓌쒬1-1,35.0406841,135.7440726
44,ssk掇쐼䏊c56,35.0409552,135.7534923
45,ssk揬R18Ԓn,35.0386106,135.7604066
46,ssk掇|m{7Ԓn1,35.0476808,135.7498619
47,ssk揬R㑍11ԒntFjbNX21r4F,35.0434531,135.759713
48,ssk揬RPQԒn̂Q,35.0397825,135.7604844
49,ssk掇zRSR,35.0405171,135.7473642
50,ssk掇MPԒn,35.0364036,135.7412375
51,ssk掇쓌䏊cV,35.0396565,135.7525922
52,ssk揬R쒬50Ԓn2,35.0430197,135.7564855
53,ssk掇zRT,35.0404835,135.7462663
54,ssk揬Ra15-11OfO[PF,35.0390129,135.7564655
55,ssk叫R163Ԓn,35.0243708,135.7313372
56,sskߊ}kV_XQS|R,35.0377036,135.7325726
57,sskk쉺~VR|R~lbrRe,35.026905,135.7324546
58,sskߊ}V_XPU,35.0362954,135.7321402
59,sskߊ}kr9Ԓn1C[OR[gkHAlbNX101,35.0403138,135.7362941
60,ssk擙@쒬T|RP,35.0267969,135.7265944
61,sskߊ}RXԒn,35.0345889,135.7350423
62,ssk敽씪SR,35.0303618,135.7303344
63,ssk敽POԒn̂QQ,35.0343245,135.7276481
64,sskߊ}JL190Ԓn̂P,35.0441988,135.7339812
65,ssk叫RiWUԒn,35.0232017,135.7349114
66,sskk쐼~75,35.0266406,135.7297469
67,ssk掇ԃmVPPԒn,35.0396887,135.7387243
68,ssk敽씪UUԒnX,35.0499022,135.7514581
69,sskkRJQOV|R,35.0460062,135.719292
70,ssk擙@쒬PXԒn̂R,35.0261633,135.7265495
71,sskkRJT|RU,35.0446169,135.719339
72,ssk叫RPVW,35.0249814,135.7312522
73,sskߊ}V_X35Ԓn,35.0358781,135.7326005
74,sskk㔒~UP]EށEGiQe,35.0275892,135.7320015
75,sskk쐼~UԒn̂P,35.0273995,135.7284298
76,ssk敽ؒ27Ԓn,35.0354729,135.7312464
77,sskߊ}咬PR|S,35.0369642,135.7303056
78,sskkRJ1021,35.0434315,135.7154679
79,ssk{x47,35.055308,135.7452803
80,ssk掇쒬130-1TpX,35.045652,135.7438272
81,ssk掇||aRŴT,35.052507,135.7488595
82,ssk掇`23Ԓn1,35.042084,135.7386811
83,ssk掇|I37,35.049042,135.7445075
84,ssk掇kԃmV96Ԓn,35.0439173,135.7379275
85,ssk揬R26Ԓn,35.0506752,135.7546897
86,ssk掇쐼䏊c30ٖkH1K,35.0409358,135.750782
87,ssk掇䏊cQSԒn,35.0417556,135.751511
88,ssk掇쐼򓰒RԒn,35.0492445,135.7409804
89,ssk掇򓰒XU|R,35.0470854,135.7421479
90,ssk{e䒬PR|P,35.0542133,135.7434184
91,ssk揬RSRԒn,35.0469233,135.7551962
92,ssk揬RkȒPԒn,35.0522011,135.7543287
93,ssk{kWԒnQU,35.0523942,135.7393632
94,ssk揬R㏉SW,35.0482327,135.7552998
95,ssk搼ΞɖؒR,35.0608164,135.7479191
96,ssk掇|꒬XTԒn,35.0461587,135.7491476
97,ssk掇哿QRԒn̂Q,35.0422622,135.7418599
98,ssk掇|咬TO,35.0515534,135.7472909
99,ssk掇|~mؒQVԒn,35.0488331,135.7524597
100,ssk{씠m䒬QPԒnS,35.0527775,135.740908
101,ssk{cK59ԒnÕ{݂ɂ1K,35.0574947,135.7492356
102,ssk掇|~mؒUOԂR,35.0476884,135.7532801
103,ssk揬Rk㑍S,35.0441737,135.7590064
104,ssk掇쐼䏊cSQԒn̂P,35.0413661,135.7528186
105,ssk{cKTUԒn,35.0574828,135.7483968
106,ssk掇쉺cTT,35.0431212,135.7519319
107,ssk揬RQO,35.0496887,135.7571806
108,ssk揬RԃmؒPWԒnP,35.0467082,135.7569905
109,ssk{mݒRԒnX,35.056865,135.7503269
110,ssk{mݒ3ԂX,35.056865,135.7503269
111,ssk搼ΐ_RO|R,35.0629269,135.7441927
112,ssk{kђQXԒnPCbNPOP,35.0567881,135.746585
113,ssk掇|mݒ21Ԓn1]GX|[nc_PF,35.053371,135.7516173
114,ssk掇쐼쒬15Ԓn,35.041405,135.7414267
115,ssk掇|I5,35.0509738,135.7449211
116,ssk掇|m{10CALMkR1e,35.0480832,135.7512101
117,ssk{k8-30,35.052467,135.7391105
118,ssk掇|ᒬRPԒnR,35.0479301,135.7448489
119,ssk{RmO3Ԓn1,35.0583123,135.7404938
120,ssk{RmO3Ԓn1,35.0583123,135.7404938
121,ssk揬R㑍PO|P,35.0431013,135.7595366
122,ssk掇쉺cQT|S,35.0435921,135.7514527
123,ssk掇|ᒬRO|Q,35.0483252,135.7453649
124,ssk{xTԒn,35.0568409,135.7435106
125,sskƔnʎV255,35.0377344,135.7609145
126,sskΏ{81-1,35.0532072,135.7656419
127,sskΖ{R,35.0670141,135.7592067
128,sskΔnmڒPOԒn̂P,35.06688,135.7476117
129,sskΒm͌QQ|P,35.0663481,135.7474718
130,ssk΍蒬QW,35.0526702,135.7608769
131,ssk΃PVR1Ԓn43,35.0605348,135.7696423
132,sskΐ乊_46Ԓn2,35.0559255,135.7594635
133,sskΏ{98Ԓn,35.0530004,135.7669377
134,sskΏ{XS,35.053752,135.766565
135,sskΏ{96|4,35.0536442,135.766957
136,sskΒH12-1,35.0573272,135.7550907
137,ssk΍͌WVԒnvCR[gkRʂPOP,35.0515066,135.7596579
138,sskΓmؒQP,35.0579033,135.755769
139,ss㋞搼@Ғi_яȋsɓ,35.0227114,135.7543197
140,ss㋞Ԓʐa@銁䒬SSWԒn畟rRK,35.0277765,135.7696595
141,ss㋞͌ʍoQOXԒnGN[Pe,35.0310856,135.7698534
142,ss㋞͌ʊۑMxRRPԒnPe,35.0173134,135.7684562
143,ss㋞捡oʎo쒬328Ԓn2,35.0289573,135.7589
144,ss㋞掺ʍozR씼240Ԓn{k[䏊2K,35.0295313,135.7576551
145,ss㋞搰WPPԒn,35.0273858,135.7515245
146,ss㋞Gےʏ㗧䏊PPOԒnPSGۍorQK,35.030387,135.7591973
147,ss㋞撆ʒFlQTQ,35.0251218,135.7510162
148,ss㋞掺ʂニ519521ԍn,35.0278678,135.7581145
149,ss㋞ʌOʓ21,35.0263754,135.733034
150,ss㋞{ʏ㒷ҒvOVPOPԒn@GXywPK,35.0234719,135.7421535
151,ss㋞ԓʐa@銁䒬448Ԓn59畟r2K,35.0271879,135.7696009
152,ss㋞ԓʐa@铌䒬44859畟rPF,35.0271879,135.7696009
153,ss㋞qb@ʊۑŒ999,35.0173957,135.7451361
154,ss㋞o`ニ199Ԓn,35.0294369,135.7694537
155,ss㋞掛o쉺QUWԒn,35.0286769,135.7681266
156,ss㋞掛ʐa@ニ񒚖ږkmӒRXTԒnQO,35.0256208,135.7677924
157,ss㋞Gےʏ㗧䏊103,35.0315978,135.758793
158,ss㋞撆ʊۑニUSRQ,35.0184008,135.7697748
159,ss㋞掛ʍoܒڐؒ415|5,35.0346941,135.764532
160,ss㋞枹ؒʈߒI򉮒328ԒnTVeB䏊PK,35.0175589,135.7574097
161,ss㋞{ʌ莛ҒRVPԒn,35.0290575,135.7427117
162,ss㋞{ʈkɐa\UXT@OR[g{PF,35.0266793,135.7422895
163,ss㋞捡Hʎ{VSSPԒnP,35.0283547,135.7390214
164,ss㋞OʉGۓO410Ԓn,35.0362071,135.7595854
165,ss㋞qb@ʏoVےPXPԒnR,35.021876,135.7464969
166,ss㋞qb@ʒRQRWԒn̂W,35.0241827,135.7470781
167,ss㋞扺Vm,34.9952807,135.7483968
168,ss㋞{ʈƔn{G81Ԓn,35.0381193,135.7491186
169,ss㋞揬ʌ莛ՉSXXԂPP,35.0277351,135.7543363
170,ss㋞Gےʏ㗧䏊110Ԓn14Gۍor5F,35.030387,135.7591973
171,ss㋞{ʍoϐ114|1,35.0308921,135.7487305
172,ss㋞Vʍo錳V݉ƒPUR|W,35.0302474,135.756295
173,ss㋞揬ʍo쉺鐼RVTԒn,35.0289982,135.7536564
174,ss㋞戰Rʒm@咬PTO,35.0352715,135.7443959
175,ss㋞쒆453|2,35.037044,135.7597246
176,ss㋞{ʒニ203Ԓn,35.0253086,135.7491393
177,ss㋞GےʈƔn쒆STV|PO,35.0367405,135.7590094
178,ss㋞撆ʐ{Og349|1T^[rPF,35.0248438,135.7427152
179,ss㋞˖ؒ885ԂP,35.0316417,135.7423636
180,ss㋞揬ʏ㗧鐼@PTPԒnQQ,35.0303876,135.7535289
181,ss㋞捡oʑ{kHPTX@W]lwoPK,35.0299575,135.7480734
182,ss㋞{ʈR腖O33ԒnQ,35.0356481,135.7409572
183,ss㋞{ʏ㗧ニԊJ@PRV̂Q,35.033022,135.7487122
184,ss㋞捡oʖx쓌򒹈䒬263VEX̎qPF,35.0295624,135.7532523
185,ss㋞{ʎVԎԒ482Ԓn̂Q,35.0335665,135.7418184
186,ss㋞捡oʎxoVROWԒn,35.0292444,135.7575211
187,ss㋞撆ʎO462|2,35.0248841,135.7567061
188,ss㋞捡oʖx쓌򒹈䒬QTQtHx썡oPOQ,35.0295436,135.7526788
189,ss㋞掛Vʎ씼243Ԓn,35.0339068,135.7580055
190,ss㋞򕟎ʏ㗧ニ单686,35.0325278,135.7454461
191,ss㋞ʏ쓌VQQRԒnU,35.0262235,135.7546643
192,ss㋞㗧ʖx쓌xV㒬QU,35.0320386,135.7533112
193,ss㋞挳莛ʖHVSUOԂR,35.0283909,135.7528066
194,ss㋞捡oʎxoVQWTԒn,35.0291169,135.7565965
195,ss㋞挳莛ʑ{TQQ,35.0283849,135.7493681
196,ss㋞VoニV݉ƒPVQԒn,35.0293839,135.7560508
197,ss㋞戰Rʑ{OڐВ,35.0351626,135.7457317
198,ss㋞揬ʍo쉺jRURԒn,35.0290284,135.7544569
199,ss㋞xʍokMWSTԒn,35.0310508,135.7522496
200,ss㋞捡oʑ{kHPUX|RcrPe,35.0299806,135.7474899
201,ss㋞򕟎ʍo쉺GTQTQ,35.0295374,135.7452616
202,ss㋞挳莛ʒqb@VTPPԒnV,35.0287691,135.7466844
203,ss㋞x쎛VニRڏV_URT,35.036307,135.7511146
204,ss㋞扺ҒʖHiTX,35.0227217,135.7539921
205,ss㋞{ʈדЌ652Ԓn,35.0273153,135.7421584
206,ss㋞{ܒҏニOg556,35.0318703,135.7417033
207,ss㋞ʐ{Gے375Ԓn,35.0264481,135.7414045
208,ss㋞掵{ʌܒ҉铌TRQԒn,35.0306765,135.7395961
209,ss㋞捡oʐ{P170Ԓn3,35.0294466,135.7415357
210,ss㋞捡HʌO쒬WQUԒn,35.0277298,135.7334447
211,ss㋞maX{ܔԒ165,35.0247756,135.7419585
212,ss㋞掛Vʐ{POTOԒn,35.0342932,135.7401975
213,ss㋞maXO217Ԓn,35.024043,135.7341848
214,ss㋞{ʏ㗧ニTOXԒn,35.0327603,135.7414772
215,ss㋞掵{ʍoニ咬496-10,35.0302671,135.7392822
216,ss㋞掵{ʐmaXニԒPOVԒn,35.024497,135.7383209
217,ss㋞掵{oニ咬SXS,35.0299775,135.7391623
218,ss㋞搼PPXQ,35.0298556,135.7403801
219,ss㋞ʌO哌90Ԓn,35.0262472,135.7350856
220,ss㋞Vʊۑtђ348հE߰Eި1KB,35.0184447,135.7566166
221,ss㋞oʍo245-1,35.0297412,135.7695476
222,ss㋞ڊy857102,35.0153957,135.7422461
223,ss㋞ۑʑ{m,35.0167252,135.7494332
224,ss㋞xʊۑx쒬PRRԒn,35.0177443,135.7515142
225,ss㋞ۑʒqb@927,35.0179686,135.7461434
226,ss㋞ۑʒqb@SWU@BZۑPe,35.0183518,135.7451765
227,ss㋞{ʊۑŒPPUR,35.0173962,135.7428363
228,ss㋞oʒqb@cOQRP|Q,35.0212798,135.7456607
229,ss㋞|ʃm535Ԓn,35.0160884,135.748473
230,ss㋞ۑʐ{SXP|QX,35.0183547,135.7444675
231,ss㋞{ニcSVV̂P,35.02083,135.7437384
232,ss㋞扺ʑ{񒬖635,35.0199248,135.7495671
233,ss㋞{ʉRXOR|U,35.0197939,135.7424792
234,ss㋞扺щl282,35.0201083,135.751155
235,ss㋞yʊۑニR908|18,35.0187546,135.7429733
236,ss㋞ԓʐa@铌䒬457ԁA469,35.0263871,135.7703136
237,ss㋞ʘZo쒬SOP,35.0264438,135.7405253
238,ssƔn{254,35.1137763,135.7730069
239,ss㍂Ð쒬PUԒnP,35.061496,135.7911596
240,ss㍂Ð쒬VQԒnP,35.0611401,135.7898111
241,ssk哰UPzC]rP|A,35.0332922,135.7918326
242,ss扺XPOPRԒn,35.0434025,135.778343
243,ss扺ђ6㕶r,35.0392187,135.7707041
244,ssq͌PTPԒnP,35.0677637,135.781583
245,ss揼뒬cSԒnTNXgPK,35.051824,135.7783572
246,ss掛mO69,35.0434239,135.7879413
247,ss㍂쓌RUT,35.0633946,135.8072012
248,ss扺{14Ԓn}grPF,35.044256,135.7716632
249,ss扺~mؒQQ|Q,35.0455001,135.7716485
250,ss捂PPԒn̂Q,35.0357813,135.7768958
251,ss扺{QTԒn[h_bNSOR,35.043887,135.7743117
252,ssyn꒬WW|ghyPF,35.0236069,135.7920286
253,ss搹@쌴QXԒn@@fBJrSF,35.0183289,135.7773108
254,ssgc͌14Ԓn2}nC101,35.0242852,135.7730811
255,ssc֓cQVԒn,35.0286544,135.7755002
256,ss扪~QԒnS@RK,35.0120028,135.7794448
257,ss搹@RQTԒnPW,35.0171929,135.7796879
258,ss搹@RPUԒnQP@]gkPOP,35.017565,135.779049
259,ss掛Ė{QVԒn,35.0454119,135.7945534
260,ss掛oPԒn@VJrQF,35.0426313,135.7920359
261,sscO103ԒnTspXgD[rPe,35.0305616,135.780065
262,ssk쓰mOT,35.0320216,135.7908918
263,sscvےQUԒnU,35.0365833,135.7820161
264,ssc_PԒn,35.0342518,135.7796072
265,ss掛钬115Ԓn,35.0458689,135.7895787
266,sscOSSԗLtsrPK,35.0297664,135.7792603
267,ss㍂ԒnPRXԒnԒn󃖒rNjbN[RK,35.0629247,135.7920525
268,ss扺{SO˃rRe,35.0437825,135.7696801
269,ss扺{W,35.043732,135.7684168
270,ssc剁87,35.0301577,135.7766055
271,ss扺mؒVPԒn,35.0408574,135.7711233
272,ss掛؃m{WԒn,35.0407023,135.7909101
273,ssqݒnTSP,35.0754857,135.787712
274,ss掛쌴Q|S,35.0481235,135.787904
275,ss掛m{57Ԓn,35.0463818,135.7860198
276,ssCw@tSԒn,35.0504292,135.7953691
277,ss掛ɖ{10,35.0407344,135.789607
278,ss扺mؒPX,35.0411568,135.7690612
279,ss扺mؒWOԒn̂R,35.0412707,135.7713769
280,ss扺쌴P,35.0426823,135.764759
281,ss㍂쏔ؒ50Ԓn3,35.0644094,135.7900709
282,ss扺ؒ67Ԓn,35.0448128,135.7674221
283,sskRcUV|QP,35.0347853,135.7917863
284,ssk쓰mO36Ԓn,35.0330498,135.7913719
285,ss扺kX_34Ԓn~lkR1K,35.0517038,135.7725254
286,ssq}737Ԓn,35.0658883,135.7741971
287,ss揼蓰m㒬7Ԓn2,35.0487576,135.7784326
288,sscvے13Ԓn1ɍr1K,35.037622,135.7814917
289,ss掛菼13,35.0430401,135.7919586
290,ss㍂[cSԒn,35.0638619,135.7890796
291,ss掛ԃm{QQ̂U,35.0428454,135.78324
292,ss扺~mؒQT,35.0457643,135.7702332
293,ss扺mؒRTԒnP,35.0403267,135.7705485
294,ss扺cPXԒnS,35.0499865,135.7707432
295,ss捂쐼JTT^JmrQe,35.0415693,135.7807892
296,ss揼OPԒnT,35.0503445,135.7765258
297,ss扺kROԒn̂Q,35.0477055,135.7704635
298,sscvےPR|QlIR[|kPOQ,35.0378192,135.7821298
299,ssqkrc67Ԓn4,35.065204,135.7748926
300,ssԐҕʏ878Ԓn,35.1759521,135.7841283
301,ssÎss1300Ԓn1,35.0896739,135.7607084
302,sscORWԒn,35.0296309,135.7791319
303,ss掛{m37Ԓnʂ1K,35.0449318,135.7912594
304,ss扺~mؒ46Ԓn1J[TQeRe,35.0469768,135.7709131
305,ssqkrc25,35.0654914,135.7774268
306,ss掛n{21Ԓn1X}VX1F,35.0416633,135.7831907
307,ssÎss744Ԓn7,35.0730797,135.7668176
308,ssc򒹈䒬SRԒn̂V,35.0314896,135.7796391
309,ssk哰UO,35.0333803,135.791831
310,ssqQQTԒnT@hXqT?POQ,35.0733358,135.7885741
311,ss掛45,35.0456597,135.7921471
312,sscvے13-2-101,35.0378508,135.7821651
313,ssqJ1648Ԓn1K,35.0810461,135.7905085
314,ss揼菬eW|Q,35.0515087,135.7854642
315,ssq뒬QQԒn,35.063689,135.7864769
316,ssqO}239,35.0692763,135.7835207
317,ssqݒn291-1,35.0715279,135.7866797
318,ssqݒn283-1,35.071715,135.7872439
319,ss捂쓌JQOԒnvUkPKeigQ,35.0413028,135.7822784
320,ssk쓰mORW,35.0328269,135.7912758
321,ss扺X_1-7hXkRPe,35.0506274,135.7715229
322,ssq203Ԓn,35.0886702,135.7815687
323,ssqlmؒ61Ԓn,35.0651596,135.7831576
324,ss㍂쉺r6|1K\jG󃖒rPK,35.0578739,135.7916685
325,ss掛˖{SU|Q,35.0388305,135.7909467
326,ss掛Y3,35.0468931,135.7935504
327,ssqݒn506-8,35.0782762,135.7878416
328,sskRmSW,35.0349913,135.7966485
329,ssk쓌vۓcUU,35.0286524,135.792311
330,sscÐ쒬PԂ̂R,35.0386476,135.7822737
331,sskʓR|Qk|[YrQF,35.0315611,135.7913248
332,ss捂쐼J41ԒnfE[hkH1K,35.0410867,135.7801862
333,ss扺q68Ԓn,35.0401231,135.7743327
334,ss扺ؒUAgGEtH[Qe,35.0439403,135.7758646
335,ss扺{X,35.0438245,135.7728238
336,ss扺X_2Ԓn9,35.0511997,135.7703222
337,ssq{c56Ԓn10,35.0657619,135.7812603
338,ssk쉺ʓRSԒnP,35.0313068,135.7917344
339,sskrc12Ԓn,35.0322887,135.7940801
340,ss扺˖{22Ԓn1,35.046477,135.7762462
341,ss捂쐼JTTԒn̂QcrQe,35.0415216,135.7807214
342,ss扺쒬UQ̂Q,35.0340377,135.7733705
343,ss掛oP,35.0426313,135.7920359
344,ss捂쐼J36ԒnPk}XNGAQe,35.0410421,135.779204
345,ss㍂ԒnPRX󃖒rNjbN[PK,35.0629247,135.7920525
346,ss扺kPOWԒn̂S,35.0475861,135.7720048
347,ssk쓌vۓcPԒn,35.0281826,135.791676
348,sscQO|U@QF,35.0301839,135.7734412
349,sscQԒnP,35.0320291,135.7741113
350,ss㍂뒬PP,35.0615656,135.7879462
351,ss掛oPVJrRe,35.0426313,135.7920359
352,ss掛kےQT,35.0457806,135.7864979
353,ssqݒn529Ԓn,35.0759544,135.7876836
354,ss捂쓌JPԂQS,35.0394818,135.7821179
355,ssc֓cPԒn̂S,35.0290394,135.7774524
356,ss掛ԃmؒSV,35.0433995,135.7932135
357,ssk쐣mT̂Q,35.0355598,135.7908719
358,ssqO}QURԒn,35.0698111,135.782559
359,ss揼菬ePU|ROVIrPe,35.0515754,135.7864112
360,sscvے2-3,35.0371341,135.7824888
361,sscPP,35.0316158,135.773815
362,ssCw@ђP|PԊٔPe,35.0494749,135.7923024
363,ss扺OTԒnPP,35.0513036,135.76778
364,ss揼苴㒬PԒn,35.0500456,135.7826019
365,ssÎss1278Ԓn,35.0905806,135.7615519
366,ssÎsÌTWQԒn̂P,35.1071702,135.7832881
367,ssÎssSUV|Q,35.0826275,135.7616516
368,ss扺kmؒQV|P,35.0541766,135.7724571
369,ssqkQSԒn,35.0682054,135.777217
370,ss搹@쌴29Ԓn@fBJrQe,35.0183289,135.7773108
371,ss揼ZmؒS|TuXPK,35.0518122,135.7768706
372,ssqJ1225Ԓn,35.0814535,135.7888193
373,ss匴ˎRWOԒn,35.1046411,135.8225707
374,ssCw@ђ6-14,35.0487867,135.7918019
375,ss搳462-2CyA106,35.0135215,135.7772224
376,ss揼ؒRO|P,35.044204,135.7781854
377,ss揼Ŗ{SԒnRuh[kRPK,35.0514401,135.7736347
378,ssv̒QOR,35.2639423,135.8235012
379,ss擌HkOSWP,35.013372,135.7784872
380,ssgcm{PO|T,35.0251164,135.7772628
381,ss扪蓿QO|U,35.0150821,135.7785468
382,ss掭J{mO19Ԓn1,35.0189639,135.7917052
383,ssyc31,35.0255422,135.7920931
384,ssgcB38-8,35.025378,135.7758686
385,ssgc㈢BRVԒn,35.026148,135.7729852
386,ssmʂVq{410ԒnOr2e,35.0119407,135.7762604
387,ssgcHRR|T,35.0241048,135.7824661
388,ssycRԒn̂T,35.0227568,135.7938896
389,ss搹@16Ԓn1,35.0186726,135.7823993
390,ssycTW|R,35.027024,135.7914102
391,ssyn꒬16,35.024857,135.7898473
392,ss捕JRO,35.0181071,135.790995
393,ssgc{RUԒnP,35.0260511,135.7821663
394,ss扪k䏊PP|P,35.0179854,135.7849989
395,ssc֓cQQ|PRORXoPOQ,35.0288403,135.7751374
396,ss搹@쌴33Ԓn3_r,35.0184239,135.7776759
397,ssgcB28-3,35.0231588,135.7743371
398,ss[ʎO@юO37ԒnAoGXpXT101,35.009433,135.7735856
399,ss扪~1-16,35.012229,135.7797209
400,ssy^@155Ԓn3,35.0204558,135.7916231
401,ssy^@155|3,35.0204558,135.7916231
402,ssgcHSTԒnQ,35.0211412,135.7834238
403,ss搹@R43-6,35.0170744,135.7782178
404,ss搹@@ؑS,35.0150061,135.7772539
405,ss擌ۑRS,35.0176729,135.7760633
406,ss搹@R28,35.0168522,135.7785786
407,ss扪k䏊12ԒnT,35.0175476,135.7848666
408,ssgc_yTO,35.0267303,135.7895424
409,ssyn꒬79-1,35.0258932,135.7915955
410,ss捕J30,35.0181071,135.790995
411,ss[ʂΐニVFPOO,35.0150591,135.7725743
412,ss扺ؒ40Ԓn,35.0441301,135.7762409
413,ss扺쌴63Ԓn2,35.0392043,135.7673729
414,ss扺ؒRX̂T,35.0438822,135.7774841
415,ss扺Ŗ{QT,35.042813,135.7680716
416,ss扺X_PԒn,35.0506274,135.7715229
417,ss扺qcVԒn,35.0510278,135.7690376
418,ss扺{12-4,35.0442083,135.7712475
419,sscvےSQԒn,35.0360268,135.7808469
420,sscmVW,35.0335855,135.7830228
421,ssk쐼VS,35.0292693,135.7879542
422,ss掛~mؒPQԒn,35.0406407,135.7864539
423,ssqORUOԒn,35.0676303,135.7927728
424,ssqݒnQQS,35.0748832,135.7857098
425,ss掛mX|Q,35.0447741,135.7879273
426,ss扺qcR|S,35.0512543,135.7684803
427,sskRcTԒn,35.0349969,135.7918327
428,ssR[뒬cUԒn̂RCw@rRK,35.0506935,135.7908545
429,ssk쐼m5-2E5-4,35.0333896,135.7895506
430,ssCw@˒11-3,35.0517514,135.7939075
431,ss㍂kcPR|Q,35.0657976,135.7937501
432,ss掛kےTV,35.0454413,135.7856268
433,ss㍂Ð쒬12,35.0618526,135.791004
434,ss捂|PUԒn̂P,35.0432146,135.7808764
435,ss掛kے59Ԓn2,35.0458954,135.787683
436,ss掛n{43tCfkH103,35.0407174,135.7849455
437,ssKOCVRQOԒn,35.0081479,135.7665435
438,ss搼mr3814,35.0125158,135.7408461
439,ssUTOlGۃX^[rUKB,35.0058373,135.7598891
440,ss揬ISRPԒnSOR,35.0044797,135.7562818
441,ssHʌr鉟H233ԒnsXNGA2KB,35.0112741,135.7535808
442,ssOʍq@58ԒnA56Ԓn,35.008582,135.7635017
443,ss搼mEiVTԒnP,35.0109047,135.7441427
444,ss͌ʎlĉ384Ԓn͌ƃrRK,35.0043377,135.7695191
445,ssGےʘZp鎵ω630Ԓnǔsr2K,35.0069733,135.75991
446,ssGۓHXTRPԒnSssԉʓm˔RQX,35.0128888,135.7593523
447,ss͌ʓVD537Ԓn4zeI[Nsn2K,35.0118482,135.7694265
448,ssۑʎ^188Ԓn1r2F,35.0176015,135.7586565
449,ssrʎrSSWԒnQɂƍKrTK,35.0111901,135.7583568
450,ss͌ʎlニĉ385Ԓn͌no`TK,35.0045416,135.7689273
451,ssяHʍq鐼UOTԒnSTrQK,35.0051877,135.7620667
452,ssGۓHXTQXԒnqZrnK,35.0128888,135.7593523
453,ss掺ʓt282Ԓn,35.012797,135.7578805
454,ssԔVʉH錮SWPVtHjArRقSK,35.0127623,135.7615207
455,ssxHʒ|閑RQUԒnP,35.0164866,135.7653346
456,ssGےʑt652Ԓn@eFGۃr5K,35.0057012,135.7600123
457,ss揭䒬245Ԓn1aVeBXNGAGۊۑ201,35.0151314,135.7592622
458,ss擌@ʎl㓌667Ԓn@vXp[͖rRe,35.0041757,135.7608913
459,ssnʌr㔒R258Ԓn1,35.0112368,135.7659271
460,ssGےʓHX514ԒnhrXF,35.0128888,135.7593523
461,ssOʖH49iror3K,35.0085468,135.7543197
462,ss搼@ʓ𐼓@636Ԓn2,35.0124363,135.7549687
463,ssۑʎ^188Ԓn1rRK,35.0176015,135.7586565
464,ss͌ʓVD537Ԓn4@zeI[NsQK,35.0118482,135.7694265
465,ssGےʘZp鎵ω630Ԓnǔsr2K,35.0069733,135.75991
466,ss掺ʒ|@28,35.0159841,135.7581507
467,ssOʌKٌcΒ48Ԓn@Oƃr5K,35.0087876,135.7662074
468,sspcP|T,35.0109729,135.7518395
469,sspn꒬19Ԓn18,35.0068317,135.7445101
470,ssGےʑtUUQԒnfBAWChsrTK,35.0055004,135.760049
471,ss搼m򒬂Pԁ@CIX^CmPK,35.0159433,135.7348549
472,sslʑ{ё{121Ԓn{}r3K,35.003917,135.7492111
473,ssԔVʉH錮SWPVtHjArRف@QK,35.0127623,135.7615207
474,ssVɒʎOV407Ԓn1,35.0080004,135.7673157
475,ss͌ʎOb{439Ԓn@r4F,35.008964,135.769201
476,ssnʌr㔒R252ԒnOh]sr1K,35.011233,135.7655012
477,ssGےʑtUSVԒngLrfBOQKab,35.0059798,135.7599505
478,ss搼mi{14-43THE GATE NIJO 6K,35.011712,135.7390658
479,ss搼mrm20110sfBJr3K,35.0108883,135.7453142
480,ss搼mےUX,35.0213511,135.731983
481,ss旼֒ʎoH`{387Ԓn1Yr1K,35.0088682,135.7586042
482,ssGےʎl⢒689Ԓn@sKr1K,35.0044814,135.7592386
483,ssxʋяHіx쒬659scr3K,35.0038562,135.7523021
484,ssGےʘZp鎵ωUROԒnǔsrPK,35.0069733,135.75991
485,ss捂qʎlщ574Ԓn@qr302,35.0046059,135.7627859
486,ssxHʓb艮RVXԒnRrfBOPK,35.0145375,135.7649828
487,ss搼@l奎R481Ԓn3K,35.003918,135.7549204
488,ss搼@ʎl奎RSWPقROP,35.0039643,135.7549605
489,ssZpʉGۓVOSOԒnngfsZprRe,35.0075044,135.7605396
490,ssԔVʉH錮481VtHjAr33K,35.0127623,135.7615207
491,ssZpʖn꓌单VPԒnC[OR[gsZpS@QKe,35.0074419,135.7644825
492,ss㔒RQUSrRF,35.0111149,135.7659641
493,ssGےʘZp鎵ω630Ԓnǔs2K,35.0069733,135.75991
494,ssяHʎV_R290,35.0050499,135.7576591
495,ssOnٌcΒRXԒnOsbrRK,35.0087626,135.7658654
496,ssVD376NgrB1F,35.01282,135.7687044
497,ss|ʉGۓRWXԒn,35.0140061,135.7689821
498,ss搼mrm20Ԓn110sfBJr2F,35.0108883,135.7453142
499,ss擌@ʎl㓌667Ԓn1vXp[͖rQK,35.0041731,135.7608968
500,ss搼mk10Ԓn5@smr,35.0121373,135.7438347
501,ss搼mEi4Ԓn1,35.0108958,135.7444697
502,sslʑ{ё{121Ԓn{}r3K,35.003917,135.7492111
503,sslʑ{ё{121Ԓn{}r3K,35.003917,135.7492111
504,ss搼mi{Q,35.0132631,135.7388657
505,ss搼mk~4Ԓn,35.02,135.731579
506,ss{ʎOO{243Ԓn,35.0073773,135.7483108
507,ss搼m㍇RTԒnVtHj[q,35.0152763,135.7316418
508,ss搼mPXԒn,35.0100122,135.7310405
509,ss搼mrQQQԒn,35.0126409,135.7410969
510,ssʎl鏼Y870,35.0040745,135.7511328
511,sspcPԒn̂QO,34.9983307,135.734358
512,sspcPԒn̂QO,34.9983307,135.734358
513,ssKʈΐ쉺B613,35.0146482,135.7667047
514,ss擌@ʓニ≮531LUXESTAGE䏊3F,35.0143064,135.7608358
515,ssy蒬ʒ|ニے,35.0159304,135.7707597
516,ssяHʓ@617Ԓn,35.0053535,135.7615908
517,ssʎ|ؒ95Ԓn1 2r4e,35.0130731,135.7678156
518,ss掛OiyQQSƁ[ׂrSF,35.0085714,135.7668452
519,ssʖ؉F533Ԓn3,35.0136859,135.7701975
520,ssOʍqeTR|PcraORe,35.0088044,135.7589094
521,ssGےʌrニa538ԒnTJGیrr2K,35.0115422,135.759651
522,ssrʖnꐼ䏊QQXԒn,35.0111329,135.7628604
523,ssZpʍ䒬xV㒬119 r3F N,35.0071823,135.7631348
524,ssnʘZp䓛407ԒnVeB[nEX407@Pe,35.0070122,135.7637534
525,ssKʎOニۉ326Ԓn,35.0093,135.7660652
526,sstqRVU,35.0060071,135.7633597
527,ss捂qʋяHニLTTXԒn,35.0055398,135.7623168
528,ss搼؉ʘZpR蒬QTWԒn,35.0067444,135.7688871
529,ss扟HnkUQXԒn,35.0123057,135.7653027
530,ss擌@ʌrSSVԒn,35.010112,135.7609095
531,ssKʉHTRXSԒn,35.0116625,135.7663525
532,ssVɒʎOV414|1,35.0081603,135.7681396
533,ss搼@ʎOUP,35.0084906,135.7550321
534,ssߒIʊۑʐAQRV,35.0167846,135.7570194
535,ssGےʊۑq201ԒnpXTChrQK,35.0172323,135.7592252
536,ssGےʌrニaTSUԒnsr,35.0114584,135.7598514
537,ssVGےʊۑ铌ؒ123Ԓn,35.0160348,135.7681439
538,sstʕxH,35.0062395,135.7649088
539,ssn|p,35.0162158,135.763908
540,ss͌ʈΐニwRRS|Q,35.0146478,135.7687637
541,ss掺ʌr~338iarPe,35.0105268,135.7582544
542,ss擌@ʎlニ㓌667Ԓn1vXp[͖rTK,35.0041731,135.7608968
543,ssGےʎOニV599@CUBE OIKE RK,35.009334,135.7593133
544,ssVGےʌ}q铌ؒ113,35.0167296,135.7682495
545,ssKʓR{435Ԓn,35.0132516,135.766212
546,ssnʌr㔒RQTQԒnOh]srʂPK,35.011233,135.7655012
547,ss旼֒ʊۑ鐼PUPԒn,35.0165908,135.758539
548,ss擌@ʓ銢V391ԒnsfBJK[fVtHjAr4K,35.0125454,135.7607432
549,ss折ʒ|T335Ԓn,35.0155157,135.75589
550,ssVؒ|ニ,35.0155471,135.7684976
551,ss捂qʊۑ{UWXԒn,35.0170352,135.7626739
552,ss掛v@OVPSԒn,35.0142648,135.7670746
553,ss擌@ʓ銢V391ԒnsfBJK[fVtHjAr5K,35.0125454,135.7607432
554,ssrʎ167|1WiLL21G۔r2K,35.0110772,135.7567409
555,ss折ʊۑ~PVSԒn̂R,35.0180263,135.7561267
556,ssnʓUڂQUWԒn,35.0146226,135.7636666
557,ssԔVʒ|ÒUSTԒn,35.016319,135.7615154
558,ssԉʓm˔313,35.0130585,135.7604401
559,ssGےʑt652ԒneFGۃr5K,35.0057012,135.7600123
560,ss掛ʎOiy233ԒnakcfDQe,35.007901,135.7667028
561,ss揬ʓニƉUPVԒn,35.0140475,135.7539589
562,ssߒIʒ|ԗQTU,35.0159002,135.7572959
563,ss652Ԓn,35.0057012,135.7600123
564,ssr䒬ۖ؍ޖؒUVPGN[krPe,35.0106325,135.7629738
565,ssGےʎoHV599Ԓn CUBE OIKE QK,35.009334,135.7593133
566,ss捂qʎOۉ166|6,35.0077937,135.7628366
567,ss͌ʓVD537Ԓn20@FISrr8K,35.01124,135.770127
568,ss擌@яH㓌UTVԒn̂S,35.0046019,135.7611968
569,ss掺ʎOGXq493Ԓn,35.0076515,135.7578004
570,ssnʎl閑511Ԓn,35.0046706,135.7654931
571,sstʖH{\쒬346Ԓn,35.0059357,135.7540665
572,ss搼@ʘZpr{SOWԂR,35.0069068,135.7553424
573,ssKʒ|咬557-2`bs|jrRe,35.01722,135.7667896
574,ssUTQԒneFGۃrRK,35.0057012,135.7600123
575,ssxHʒ|閑327Ԓn,35.0166013,135.765168
576,ssxʌr鉟x381C391,35.0117131,135.75218
577,ssrʖkq䏊231Ԓn VJ^JgYrfBO4K,35.0111285,135.7629721
578,ss͌ʎlニ2ډ㒬349ԃCVY~͌r5K,35.0051922,135.7694126
579,sstʉGۓAВ300Ԓnp[r402,35.0064874,135.7604229
580,ssKʋяHニDRWQԒn,35.0055533,135.7660714
581,ss͌ʎOb{439ԒnrTK,35.008964,135.769201
582,ss͌ʓ񒚖ډۉ397ԒnYEJEKr4K,35.0105601,135.7686422
583,ss捂qʌrTbUOUԒn,35.0102007,135.7623724
584,ss捂qʎoHВUQPԒn,35.0090405,135.7626553
585,ssZpʍ䒬xV㒬119ԒnrSF,35.0071823,135.7631348
586,ss搼@ʒ|咬RXO,35.015652,135.7551989
587,ssGےʘZp鎵ω637ԒnC^[vCXGۃrRK,35.0065295,135.7592437
588,ss旼֒H461ԒnGیrfBJ[Q|a,35.0125642,135.7590387
589,ssGےʈΐ鏭䒬245Ԓn2G۔~c3K301,35.0152214,135.759364
590,ssUTQԒn,35.0057012,135.7600123
591,ssnΐܒ230Ԓn̂Q,35.0157969,135.7637256
592,ssGےʌrՉ5772GێoHr6E8E9K,35.0099759,135.7600286
593,ss擌xʌrOVx쒬57-3,35.0104933,135.7521818
594,ss无ʑt闠599Ԓn@oԖr4K,35.0057436,135.7684442
595,ssGےʎoHV599 CUBE OIKE5e,35.009334,135.7593133
596,ssHʊۑb蒬115F]䏊1K,35.0175141,135.7546829
597,ssGےʓHX518Ԓn OcGXGkr1K,35.0131866,135.7593607
598,ss䒬ʒ|ニk82Ԓn2@TKH ENTr3K,35.0167021,135.7629339
599,ss旼֒ʒ|鐼160ԒnQ@DzfBJrB,35.0165065,135.758929
600,ssrʌKr哌596ԒnKiyoshi@Build3K,35.0110095,135.7668343
601,ss擌@ʘZpˎR260ԒnCvUr1Kb,35.0072486,135.7613658
602,ssrʖx쓌b蒬190ԒnC]106,35.0107055,135.752933
603,ssʍqωUXԒn,35.0137802,135.7626348
604,ss擌@ʓ≮TRPԒnktwdrs`fd䏊PK,35.0145595,135.7611289
605,ssGےʎoHVTXXbtadrUK,35.0091845,135.7593548
606,sspc31Ԓn,34.9975846,135.7349249
607,sspTSԒnSU,35.0011284,135.7396449
608,sspaPV|P,35.0000818,135.7390046
609,sspOPS|P,35.0109729,135.7518395
610,ssp54Ԓn117,35.0011514,135.7399356
611,sspa60-12,35.000454,135.7377348
612,ss搼m̔UԒns{t1K,35.0105231,135.7421045
613,ss搼m̔Us{tقUK,35.0105231,135.7421045
614,ssڊy쒬SP|Q,35.01479,135.7427614
615,ss擌@ʓ銢V391ԒnsfBJK[fVtHjAr4K,35.0125454,135.7607432
616,ss搼m쐹13Ԓn1F,35.0097967,135.742894
617,ss搼m吆咬W}n`rhr~XQe,35.0190543,135.728606
618,ss搼mk75ԒnP,35.0114086,135.7359072
619,ss搼m`9|4]EhEZhPe,35.0211739,135.7290988
620,ss搼mn㒬PQ|PV,35.0199379,135.7265639
621,ss搼m`QP,35.0218643,135.7274756
622,ss搼m~PP̂T,35.0192332,135.7316055
623,ss旼֒Hニ461ԒnGیrfBJ[Pe,35.0125642,135.7590387
624,ss搼m̔VԒnŋwLpX12K,35.0100374,135.7421582
625,ss͌ʎlĉRWOԒnPTSUJIKURArRF,35.0045816,135.769445
626,ss|ʓ@VURO,35.0162934,135.7612501
627,ss搼mEi69Ԓnhlo`bs hjt1K,35.0111433,135.7447491
628,ss|ʖH|515Ԓn,35.0163596,135.7525039
629,ss䒬ʌrۖ؍ޖؒ676Ԓn SHICATA HUIT BLDG7K,35.0102318,135.7634639
630,ssGےʑt652ԒneFGۃr4K,35.0057012,135.7600123
631,ss擌@ʓ≮524ԒnRtH[䏊1K,35.0141359,135.7611098
632,ssяHʓ@599Ԓn1Ѷ4K401,35.004667,135.7619668
633,ss擌@ʎOOQQVԒnP@ZrRF,35.007415,135.760936
634,ssяHʍq601ԒnяHr3K,35.0051728,135.762216
635,sspm{RP,35.0074855,135.7631529
636,ssڊyQԒn,35.0181177,135.7421196
637,ss搼mxQԒnPOԃrTK,35.0133686,135.7428318
638,ss搼m̔1-1iqwmjrSe,35.0113208,135.7424016
639,ss搼mk䒬UV,35.0151295,135.7292239
640,ss搼mxrRԂS,35.0150019,135.7265636
641,ss搼mԍ⒬PQԒn,35.0172566,135.7386497
642,ss搼mi{QQ|PP,35.0111704,135.7385777
643,ss搼mEi23,35.0108995,135.744837
644,ss搼m̔RԒniqwmjrRK,35.0113208,135.7424016
645,ss搼mVRԒn,35.0091714,135.7324826
646,ssڊy15Ԓn6,35.0167705,135.7424034
647,ss搼mk䒬1,35.0158693,135.7284964
648,ssp|14,35.0081231,135.7346303
649,sspX639,35.0047558,135.736822
650,ss搼mEi70Ԓn,35.0109038,135.7437037
651,ss搼mEi72-6,35.0108865,135.7439612
652,ss搼mq4Ԓn,35.0091056,135.7399535
653,ssp鐝QVԒnP鐝nCcQK,35.0083159,135.7423636
654,ss搼m염33Ԓn10,35.0170033,135.7360432
655,ss搼mnQW,35.0187422,135.7373732
656,ss搼mPPÃvUrSK,35.0104105,135.7310329
657,ssxʌr鐼OVx쒬TQPԒn,35.0102064,135.7514397
658,sspz䏊R̂R,35.0032895,135.7467429
659,ss搼m̔RiqmjrRe,35.0113208,135.7424016
660,ss搼m̔R JRwNKr4K,35.0113208,135.7424016
661,sspz䏊RԒnPsKrPK,35.0034607,135.7464477
662,ss搼xʎOox쒬511Ԓn,35.0092355,135.7517283
663,ss搼mxrP31,35.0152844,135.726838
664,sspXQX|R,35.0039916,135.737691
665,ss搼mWUԒn,35.0115955,135.7321061
666,ss搼m̔P|PJRwNKr3K,35.0113208,135.7424016
667,ss搼m㍇70Ԓn,35.0151849,135.7324455
668,ss搼m25|15,35.0146522,135.7394274
669,ss{ʑtlV{PUOԒn,35.0051058,135.7487508
670,ss搼m쐹PWOrPK,35.0092607,135.742854
671,ss搼mkHPVԂQ,35.0092265,135.7338334
672,ss搼mxr18Ԓn1,35.0144443,135.7260666
673,ss搼mK1Ԓn,35.0093357,135.7267237
674,ss搼m11Ԓn,35.0104105,135.7310329
675,sspm{31Ԓn,35.0019714,135.7431408
676,ssp󒬂ST|T,35.0012962,135.742606
677,ss_򉑒ʌr_򉑒PԒn,35.0107166,135.7473418
678,ssp1Ԓn,34.9998559,135.7479036
679,ss搼mEi67|3,35.011315,135.7466015
680,sstx쐼VVV,35.0137877,135.7662012
681,ss搼mEiP|P,35.0109017,135.7450321
682,ssڊy36Ԓn1,35.0191505,135.7406824
683,ss搼m_6-22,35.0187773,135.7342526
684,ss搼m~SP|T,35.0180091,135.7328117
685,ss搼mQssoQZ^[,35.0133374,135.7305264
686,ss搼mD˒11Ԓn,35.0120947,135.7362069
687,ss擌@lニ㓌UTV̂S,35.0046019,135.7611968
688,sspz䏊R̂QO,35.0033848,135.7471383
689,ss͌ʓ鐴RUQ͌WCr3K,35.0133577,135.7687414
690,s{ss͌ʎlĉ385Ԓn͌OPA5K,35.0045416,135.7689273
691,ss搼m˖{13?42,35.0148627,135.7280023
692,ssR捡F잧mXPP,34.9839849,135.7731734
693,ssR捡F쌕{WԒnPTgm[QOPAQOQ,34.9832463,135.7764781
694,ssR捡FkgRT,34.9897238,135.7780235
695,ssROPXT|T,34.9819981,135.7729343
696,ssR_쑤TVOԒnPQT,35.0031035,135.7755019
697,ssRO勴lڎQQ,35.009305,135.7773705
698,ssROʑ勴勴POQԒnPcrRK,35.0094154,135.7734076
699,ssR搳ʒʖ{TOXԒnP,34.9919051,135.7703446
700,"ssR揼ʑaH|48,49n",34.9985734,135.7724817
701,ssROʓlؖڔؐגg577Ԓn3OG^[ism@O1K,35.0072445,135.778115
702,ssR擌H܏Ւ457,34.9924784,135.774981
703,ssR搴l185Ԓn1,34.9957144,135.7774278
704,ssR捡FrcS|PT,34.9851127,135.7738321
705,ssRaJʖ{OڏVV358Ԓn,34.9938664,135.773315
706,ssRꋴ{PP̂POmHƊЖ{ЋڂQK,34.9841047,135.7692617
707,ssRaHʎl4ڏ154|3,34.9988625,135.7725865
708,ssRaHʌ܏Ί_TR|Q,34.9948293,135.7718892
709,ssRaHʎlOڔVX,35.0012513,135.7723144
710,ssR{15794Ԓn,34.9798149,135.7729529
711,ssROPXPԒn,34.9822269,135.7737597
712,ssR捡FrcTV|T,34.9834757,135.7721422
713,ssRÖOOg343,35.0070577,135.775352
714,ssRꋴ{mPT,34.9876586,135.7688159
715,ssRaJʑaHVV338,34.9940882,135.7723306
716,ssR{؂WڂSRTԒn,34.9962973,135.768834
717,ssRkؔV523,35.0086317,135.7781484
718,ssRZgOPVO,34.9965116,135.7731288
719,ssR捡F󑠒SRԒn,34.9845377,135.7752906
720,ssR{꒚ڂTQԒn,34.9948382,135.7701438
721,ssR搴ܒڂPROԒn̂U,34.9971485,135.776315
722,ssROʑ勴勴102Ԓn1 cr4K,35.0094154,135.7734076
723,ssROʑ勴勴POQԒnPcrQK,35.0094154,135.7734076
724,ssROʑ勴勴102Ԓn,35.00942,135.7733965
725,ssR֒460Ԓn2,34.9924348,135.7751395
726,ssROʑ勴QډF442Ԓn9,35.0079063,135.7769115
727,ssROʔ싴鐼oH420Ԓn2,35.0100465,135.7790826
728,ssR勴94ԒnO؃r4K,35.0090704,135.7737325
729,ssROʔ싴܌PQR,35.0094079,135.7816894
730,ssROʑ勴89-1,35.0094628,135.773815
731,ssRO勴XSԒnO؃rTe,35.0090704,135.7737325
732,ssRO勴勴XSԒn@O؃rQK,35.0090704,135.7737325
733,ssRO勴勴94O؃r5K,35.0090704,135.7737325
734,ssROʐ_{PSOԒnP,35.0090523,135.782334
735,ssR捡FkgRT,34.9897238,135.7780235
736,ssRȋco3Ԓn4,34.9781244,135.7953193
737,ssRȋ搼씀{12]7@JrR2K,34.9872543,135.8030801
738,ssRȋ搼RbSPԒnP,34.9704968,135.8031766
739,ssRȋ搼Rb41-1,34.9704968,135.8031766
740,ssRȋ擌|cPOԒnUX,34.9764728,135.8047003
741,ssRȋ˒m20-4NjbN[ATR2F,34.9917021,135.8142701
742,ssRȋ枧ґC151CI^ERȞ2e,34.9738647,135.8162511
743,ssRȋ|@|mX92ԒnNgC301,34.9900725,135.8177781
744,ssRȋ˖a86Ԓn2,34.9829021,135.8272075
745,ssRȋ쉮~35Ԓn@NgD6K,34.9904557,135.817704
746,ssRȋ|@|mX29Ԓn2˃r5K,34.9895938,135.8170585
747,ssRȋlm{m㒬PUԒn̂Q,34.9913485,135.8238438
748,ssRȋlm{蒬PPԂSR,34.9912126,135.8269243
749,ssRȋ擌씪P|PS,34.978575,135.8079236
750,ssRȋ枧ґC9Ԓn5,34.9731142,135.8154525
751,ssRȋ抩CI쒬273,34.9694772,135.8067912
752,ssRȋ枧ҐYQUԒnS,34.9741144,135.8140265
753,ssRȋ搼R䒬75Ԓn1,34.9712981,135.8002907
754,ssRȋcHcRUԒn,34.9775344,135.7986169
755,ssRȋ쉮~RTRȃNgcSK,34.9904557,135.817704
756,ssRȋlm{Ŕ23Ԓn1,34.9903483,135.8341971
757,ssRȋ搼썡~26Ԓn7,34.9863476,135.8113214
758,ssRȋ搼撬QԒnQ,34.984635,135.8144783
759,ssRȋ批HoP|RORȃCrQe,34.9852534,135.8169371
760,ssRȋ֐UVԒn,34.9660246,135.8147181
761,ssRȋˏ_쒬7-7䐬r,34.9943335,135.8051575
762,ssRȋ䏊m10ԒnSENE[WPK`,34.9915322,135.8162785
763,ssRȋ搼씀{PPÔR,34.981691,135.8020576
764,ssRȋ~qђ60|1{r1-`,34.986846,135.8109022
765,ssRȋlm{_mPԒn,34.9911798,135.8236466
766,ssRȋ枧Ғ݉ƒPQ̂Q,34.9742316,135.8150372
767,ssRȋ枧Ғ݉ƒPVԒnvUm҂QK,34.9742105,135.8154846
768,ssRȋ批H򒬂RT,34.9874606,135.8205228
769,ssRȋܔ2ԒnQ,34.9744872,135.8228056
770,ssRȋ䏊m16-12cr,34.991754,135.816312
771,ssRȋ搼썡~SU|Q,34.9862392,135.8094732
772,ssRȋ枧ґC38-35,34.9725969,135.8150856
773,ssRȋŖ15Ԓn,34.9736049,135.8218672
774,ssRȋlm{͌3Ԓn,34.9911944,135.8215107
775,ssRȋ|@mOQS|UhOrRe,34.9873065,135.8172405
776,ssRȋ抩CĎRW|POX,34.9675732,135.8026572
777,ssRȋ擌씪SWԒnSR,34.9781513,135.8057252
778,ssRȋ抩Co30Ԓn11,34.9610023,135.8123417
779,ssRȋ抩CmPR|R,34.9613719,135.8085208
780,ssRȋ䏊c1151,34.9711321,135.8260835
781,ssRȋ抩C՗юWR|U,34.9560731,135.8114396
782,ssRȋˎl쒬65Ԓn2,34.9889789,135.8125228
783,ssRȋˌSԒn,34.995262,135.8043484
784,ssRȋ|@|mX35Ԓn,34.9905491,135.8164081
785,ssRȋ䏊m161,34.9919142,135.8163123
786,ssRȋ~q㒬PS|PTS,34.9873456,135.8076594
787,ssRȋˌSPԒn̂P,34.9897613,135.8057457
788,ssRȋ批HcPWԒn,34.989125,135.8249517
789,ssRȋ抩CĎR15Ԓn2,34.9661552,135.8025192
790,ssRȋːXPTԒnP,34.9805574,135.8232919
791,ssRȋlm{RԒn̂S,34.9898035,135.8249832
792,ssRȋ批Ho6|2,34.9853677,135.8181674
793,ssRȋlm{˂WԒnTPP,34.9992471,135.8340208
794,ssRȋ擌m㒬QO,34.9761744,135.8184935
795,ssRȋˎl쒬54-3,34.9878936,135.8133485
796,ssRȋϏCI쒬QTOԒn,34.9721588,135.8063249
797,ssRȋɓ2Ԓn,34.9683696,135.816262
798,ssRȋ˒38-19,34.9902847,135.8093098
799,ssRȋkԎR35Ԓn31,34.9871421,135.8021928
800,ssRȋ批Hm؂QÔP,34.9876914,135.8265611
801,ssRȋlm{_m32lm{R[g,34.9909856,135.8234404
802,ssRȋ批Ho11-2,34.9834161,135.8192712
803,ssRȋˊ˒UQԒn̂R,34.9954148,135.8009096
804,ssRȋ˓aROԒnS,34.9785015,135.8242105
805,ssRȋ|@|mX33ԒnP,34.9895886,135.8168396
806,ssRȋ搼撬W|T,34.984441,135.8143683
807,ssRȋ枧ҐY22-10,34.9745041,135.8145932
808,ssRȋ|@|mXQR[xT TF,34.9895983,135.8175957
809,ssRȋkԎRc16-7,34.9875338,135.8019597
810,ssRȋˎl쒬54-3,34.9878936,135.8133485
811,ssRȋkԎRUX|PO,34.9854546,135.8011488
812,ssRȋˉ1Ԓn2,34.9937573,135.802311
813,ssRȋ쉮~3Ԓn56A3Ԓn49,34.9906702,135.8193536
814,ssRȋ擌쒆m㒬PW|Q,34.9782982,135.8205154
815,ssRȋ枧ґCRW|RTHSrRe,34.9725969,135.8150856
816,ssRȋ|@|mX627,34.9903409,135.8150558
817,ssRȋ˒aSXԒnU,34.9802632,135.8261149
818,ssRȋ擌SqQP|QđrPK,34.9787988,135.816087
819,ssRȋ|@|mX29Ԓn2 ˃r2K,34.9895938,135.8170585
820,ssRȋkԎRђRS,34.9838735,135.8000657
821,ssRȋ|@|mXVSԒnP,34.9899237,135.8159617
822,ssRȋ擌씪UԂP,34.9777144,135.8078624
823,ssRȋ擌km㒬T|R,34.9814692,135.8177488
824,ssRȋ˓cRRP,34.9942585,135.8151478
825,ssRȋ批Hc15-3ht@[XgrQF,34.9833901,135.8170364
826,ssRȋ搼RSXPWTԒn̂Q,34.9760537,135.7967827
827,ssRȋ擌씪QP,34.9775469,135.8160755
828,ssRȋ|@|mX8Ԓn̂P,34.9899251,135.8189213
829,ssRȋ˒OcQP-W,34.9794108,135.8270835
830,ssRȋmJP|P,34.9973857,135.79916
831,ssRȋ搼R䒬68|1,34.9711191,135.7996729
832,ssRȋ搼Rmn꒬13,34.9746977,135.7917992
833,ssRȋŖ14|1,34.9728731,135.8210227
834,ssRȋ枧ҒrKPS|Q,34.9722545,135.8137202
835,ssRȋkԎRVWԒnS,34.9858575,135.8011041
836,ssRȋ˖a3ԒnRȉ2K,34.9833339,135.833393
837,ssRȋ˕WRVԒn̂VP,34.9983723,135.798008
838,ssRȋ|@mOSU|PsRȃrRK,34.986147,135.817441
839,ssRȋˏ_쒬VԒn̂R,34.9942172,135.8053608
840,ssRȋ|@mOW|PPBIXRȂPe,34.9879724,135.8175628
841,ssRȋ搼씪c28-16,34.9874479,135.8031207
842,ssRȋc⹒JPԒn̂R,34.9809197,135.7927273
843,ssRȋ批HoQԒn̂PP,34.9838865,135.8182115
844,ssRȋ~qђRTԒn̂P,34.9869388,135.8096976
845,ssRȋ|@l쒬PSԒn̂Q,34.9880579,135.815628
846,ssRȋlm{_m1ԒnSUN YOU 1F A,34.9911798,135.8236466
847,ssRȋ擌SqQVԂ̂P,34.9780047,135.8150849
848,ssRȋ|@|mX29Ԓn2,34.9895938,135.8170585
849,ssRȋ批Ho1-28ÌrPe,34.9850057,135.817284
850,ssRȋ搼F15-88,34.986211,135.8050649
851,ssRȋIŉzRR,34.9715002,135.8066908
852,ssRȋ擌Sq21-2đrPKsP,34.9787988,135.816087
853,ssRȋ搼RbSPԒnPR[vRȐV\NjbN[,34.9711722,135.8020367
854,ssRȋ|@|mXR|RV[]тPOP,34.9898879,135.8193907
855,ssRȋ쉮~QU|P,34.9910543,135.8176646
856,ssRȋmJ61Ԓn16,34.9970184,135.8004514
857,ssRȋ|@m21-5,34.9895962,135.8195122
858,ss掵͌ޖؒSUO,34.9896773,135.7644856
859,ss掛ʎlOVTWXԒnsllrSK,35.0027013,135.7666653
860,sslʉ͌^WWԒn[CbgDrPrSK,35.0035392,135.7701272
861,sslʎ䗷46Ԓnm[XTChrSK,35.0039396,135.7686366
862,sslʖn꓌12Ԓn1@ynslʃr5K,35.0038825,135.7645729
863,ssGےʉH铌HXOPԒn@swrXK,34.9860358,135.7589981
864,ss戻HʕxH62Ԓn1K3building3K,35.0024481,135.7647051
865,sslʖnꐼVPOSԒnP@lrQK,35.0040025,135.7637833
866,sslʎJgXP,35.0040167,135.7588364
867,sslʖn꓌VԒn,35.0033614,135.7643012
868,ssGےʎ铌HVQOԒnPswOx͉rUK,34.987774,135.7594861
869,ss撷g31Ԏlrhr5K,35.0034922,135.7609063
870,sslʎJgVVԒn,35.0039112,135.7581885
871,sslnQWԒnr`jhyn@ok`y`@QKERKETK,35.0040031,135.7653716
872,sslʏ^UXԒnRgNX}͌VK,35.0039899,135.7695744
873,ss搼@ʉH铌HWOPԒn,34.9859592,135.7545083
874,ss搼̒XSԂP,34.9906921,135.738855
875,ss搼kߓcRV|PV}[HPQP,34.9894166,135.7321282
876,ss掵䏊m{WXԒnPNjbN[HPK,34.9854159,135.7329729
877,ss掵䏊m{WXԒnPNjbN[HQK,34.9854159,135.7329729
878,ss搼kߓcRV|PV}[HRPP,34.9894166,135.7321282
879,ss{ʈH鈻{UQԒnVFu[l{PK,35.004848,135.7467964
880,ss擌@ʈHQVTԒnP@jnv`@rRKQ,35.0023069,135.7609259
881,ssVRWԒnQ,34.9869691,135.7651377
882,ss掵ʉGۓ^QPSԒnswTrUK,34.9890313,135.7606803
883,ss܏ʂx쐼`{579Ԓn ܏xr3K,34.9958529,135.7518842
884,ss鐝kmQXԒn,34.9893666,135.7399729
885,ssGےʎ铌HVQPԒnP@s^[rQK,34.9875514,135.7592807
886,ss掵ʉGۓ^PXVԒnu[PKjTK,34.9893845,135.7599738
887,ssGےʎ铌HVQOԒn,34.9877729,135.7594968
888,sssʏדVOO@QF,34.9991707,135.7606379
889,ssVʈHDgRXQԒnP,35.001943,135.7562389
890,ss掛ʂ菼AVPVԒn@KrUF,34.9985269,135.7671184
891,ss擌@ʎl錳q37ԒnLlGۃrQe,35.0033714,135.7609195
892,ssGےʎHVRTԒnP,34.9887753,135.7600582
893,ss擌@ʎ铌HTTVԒnP[ACrRF,34.9874038,135.7613088
894,ss擌@ʎ鉖H520Ԓn@Ocуr5F,34.9884575,135.7613182
895,sssʎ铌HVPV|QeƃrQK,34.9874397,135.7602452
896,ss扖HʉGېHUPSԒnTK,34.9875499,135.7563929
897,ss掵ʉGۓ^PXTԒnRK,34.9890193,135.7599842
898,sszKʌ܏zKQXSԒnTVOP,34.9959143,135.758777
899,ss͌ʏQڕxiRTU,35.0010056,135.7678526
900,ssGےʎ铌HTXOԒnQ,34.9882138,135.7590586
901,ss搼؉ʏm~WRԒn̂P,34.9931917,135.7651265
902,ss掺ʈH锒yVTOV@rPe,35.0022648,135.7579293
903,ssGےʎ铌HTXOԒnQshoVrSK,34.988109,135.7593982
904,ss掺ʌ܏ⓌQUUCPOP,34.997201,135.7582857
905,ss搅≮628Ԓn1tNrfCO6K,34.9989991,135.7613713
906,ss捂ґ{PORԒn{҃rRKSK,35.0000393,135.749366
907,sslʎ䗷{{VԒn@ՃrQARK,35.0038463,135.7673249
908,sslʖnꐼVPOTԒn,35.0034555,135.763909
909,ssGےʉH铌HXOPԒnswrzeOBAsUK,34.9858585,135.7589822
910,ss搳ʒʐ؉~XQԒn,32.7696004,130.3729273
911,ss搼@ʉH铌H608Ԓn8,34.9875957,135.7554303
912,ss戻HʒFۉTTTԒnP,35.0023732,135.7498684
913,ssGےʉH铌HXOPԒnswr@zeOBAsVK,34.9858585,135.7589822
914,ssGےʈH񒟔~USUԒn@_C}lGۃraP,35.002165,135.7598495
915,ss܏ʎ풬QUSԒn̂Q,34.9965744,135.7584337
916,ss掛ʎlOVTWXsllrUK,35.0027013,135.7666653
917,ssHʖؒÉksSXOԒnQbvswOPK,34.9875839,135.7534312
918,ss擌@ʈHQVT|P@KOWA@rSK,35.0023069,135.7609259
919,sslʍqUWԒnQlGۃZgrRK,35.0034418,135.7616215
920,ssGےʉH铌HXOPԒnswrzeOBAsUK,34.9858585,135.7589822
921,ssGےʉH铌HXOPԒnswrzeOBAsVK,34.9858585,135.7589822
922,sslʓ@UUԒns،rVK@VOREVOS,35.0039788,135.7616361
923,sslʓ@UUԒns،rWK@WOP,35.0039788,135.7616361
924,ss͌ʎl鏇ROXԒn@rUK,35.0030939,135.7697227
925,ss擌@ʎ𓌓ޖؒSXXswOVrRF,34.9893728,135.7617059
926,ss扖HʉGېH579Ԓn1R胁fBJr4F,34.9876739,135.7584477
927,ss擌@ʏ]TTW,34.9952874,135.7648614
928,sslʖnꐼVXQԒn@`rUe,35.0034509,135.763097
929,ss擌H547Ԓn2rQK,34.9870344,135.7612606
930,ss戻HʉGېҒPUPԒnQۑSrRK,35.00227,135.759003
931,sslʍqUWԒnQlGۃZgrTe,35.0034418,135.7616215
932,ssGےʉH铌HXOPԒnswrzeOBAs@VK,34.9858585,135.7589822
933,ss͌ʎl鏇ROTԒn,35.0030331,135.7697072
934,ss؉ʒcI֓PRWԒn,35.0019876,135.7701849
935,ssVʎll𒬂RSXԒnPsFTr@TKe,35.0032585,135.7568001
936,sslʓ@UUԒn@s،rTK,35.0039788,135.7616361
937,sslʍqVUԒnSA\xrSK,35.0035697,135.7621665
938,ss掛ʎlOVUPRΏV{قRK,35.0032183,135.7670906
939,ss擌@ʈHQVTԒnP,35.0023135,135.7609006
940,ss扺ʏ㒷QPW,34.9986784,135.7485219
941,ss撆V钬RPԂV,34.9964876,135.7443817
942,ss搼kߓcRVԒnPV}[HQQP,34.9894166,135.7321282
943,ss搼𓌌OcQOԒnPs܏NjbNrSK,34.9957923,135.7345363
944,ss撆쒬PRSԒnjqo@`rsdlQK@QOT,34.994818,135.7402389
945,ss掵䏊m{WXԒnPNjbN[HRK,34.9854159,135.7329729
946,ss鐝PԒnP,34.9889621,135.7392986
947,ss擌@ʎ铌HTSSԒnQnmrVOP,34.9874319,135.7608709
948,sslʎJg87PCACYsrSe,35.003924,135.7585958
949,sslʓ@闧66 s،r705,35.0039788,135.7616361
950,sslʖnꐼV99Ԓn,35.0034068,135.7635548
951,sslʍqVUԒnRlq吼rUe,35.0034791,135.7620783
952,sslʕxH14CVY~{ЃrTK,35.0034954,135.764727
953,sslʐV錎gUQ@ZFrRK,35.0039412,135.7578368
954,sslʖnꐼV105ԒnISEr4F,35.0034555,135.763909
955,sslʉ͌^TQԒn,35.0031075,135.7685377
956,sslʐ@sR18ԒnqIJr2K,35.0034822,135.7558044
957,sslʂnꐼVPOSԒn@lrTK,35.0040025,135.7637833
958,sslʎޗǕRVTԒnslrRF,35.003913,135.766427
959,sslʎgURgrWK,35.0035529,135.7576332
960,sslʓ@UUԒn@s،rnPK@aP|S,35.0039788,135.7616361
961,sslʖnꐼVXXlrdsrTe,35.0033973,135.7635546
962,sslʍq76ԒnA\xr6C7C8K,35.0035025,135.7620761
963,sslʓ@UUԒns،rUF,35.0039788,135.7616361
964,ss搼𓌌OcQOԒnPs܏NjbNrTK,34.9957923,135.7345363
965,ss搼ߓcRԒn,34.9889889,135.7308756
966,ss搼쌎ǒRT,34.9882938,135.7299984
967,ss搼kߓc36,34.9895358,135.7315778
968,ss鐝73Ԓn,34.9879912,135.7407682
969,ss搼쓌쒬PTW,34.9884366,135.7383736
970,ss掵䏊mSOԒn,34.9856141,135.7311639
971,ss搼쓌쒬SRԒn,34.9883541,135.7365309
972,ss搼sPRQԒn,34.9907499,135.7358484
973,ss搼ߓc58Ԓn,34.9889107,135.732211
974,ss搼쐼쒬17ԒnC18Ԓn,34.9883293,135.7336248
975,ss掵䏊mk30|2,34.9870293,135.7303111
976,ss搼𔪔QXԒn,34.9923348,135.7289689
977,ss鐝ؒ@sLn,34.9925188,135.7408461
978,ss搼𓌔cRRԃpfVIsPe,34.9917042,135.7386688
979,ss搼𓌐΃ؒSRԒn,34.9925501,135.7355504
980,ss搼kǒVR,34.9898701,135.7297963
981,ss撆쒬108,34.995743,135.7404945
982,ss搼쐼쒬UOԒn,34.9879985,135.733676
983,ss搼k쒬122,34.9894441,135.7385731
984,ss撆쒬108Ԓn,34.995743,135.7404945
985,ss掵䏊mk84j[C_Xg[rTK,34.9876886,135.7323134
986,ss搼𓌌OcQOԒnPs܏NjbNrQK,34.9957923,135.7345363
987,ss搼𓌌Oc20ԒnPs܏NjbNrRK,34.9957923,135.7345363
988,ss扖Hʓ@H547Ԓn3Ήr2F,34.9871188,135.7614097
989,ss搼@ʏiqTTTԒnS,34.9984283,135.754964
990,ssGےʎ铌H718ԒnقRK,34.9874476,135.7600027
991,ss搼@ʓHUOWԒnX,34.9875889,135.7560227
992,ss搼@ʏiqTTWԒn,34.998204,135.7554674
993,ss掺ʎl{g500Ԓn,35.0026112,135.7580034
994,ss敧ʖHؑRPUTԒn,35.0011325,135.7539467
995,ss搼@ʐʉb艮SSXԒnQ,34.9909719,135.755621
996,ss搼@鈻@760@@r3K,35.0013537,135.7551019
997,ssGےʉHH901ުًsɐO9K,34.987316,135.7586143
998,ss掵ʑ{HPQT̂PJw{wɓ,34.9898465,135.7499657
999,ssGےʕ񒟔~655Ԓn@YosGۃr5K,35.0016978,135.7598652
1000,ss{ʎ퉮UV,34.9889549,135.748944
1001,ss掵ʖH单253Ԓn,34.9888362,135.7551109
1002,ss撆OcW,34.9952297,135.7467681
1003,ssʎl쓰SPSԒn,35.0028079,135.7528944
1004,ssGےʎ铌H735Ԓn1㋞sr5K,34.9887753,135.7600582
1005,ssKʍ҉閑SUX̂P,34.9996604,135.7663854
1006,ss掵ʉGۓ^195Ԓnr5K,34.9890193,135.7599842
1007,ssԔVʉ쐔鐼ʐ279Ԓn,34.9906088,135.7617388
1008,ss掵ʂGۓ^220Ԓn3IOVr4K,34.9891067,135.7608409
1009,ssԉʍqVU,34.9933553,135.7627423
1010,ss擌@ʍҏ鍂632Ԓn,35.0008307,135.761132
1011,ssnʈHiPSXԒn,35.0021349,135.7637515
1012,ss܏ʎzK@UrQe,34.9955439,135.7588364
1013,ssԔVʂZ΃mWW,34.9939812,135.7582038
1014,ss؉ʏニZ,34.9993535,135.768834
1015,ssKʎl404,35.0028055,135.7662849
1016,ssVʏxiPPOԒnP,34.9979976,135.7569768
1017,ss敧ʖHؑRPUW,35.0014794,135.7540727
1018,ss掺ʌ܏单215Ԓn,34.9951658,135.7583799
1019,ss敧ʖnꐼORXWԒn,35.0012301,135.7630246
1020,ssVʎll𒬂RSW,35.0034283,135.7563744
1021,ss扖HʉGېH579Ԓn1 Rr8F,34.9876739,135.7584477
1022,ss{ʌ܏@܏448Ԓn2,34.9959166,135.7489566
1023,ssHʈH570Ԓn,35.0018121,135.7533635
1024,ss扖HʉGېH579-1 Rr5F,34.9876739,135.7584477
1025,ss͌ʏニQWX|Q,34.9992739,135.7679825
1026,ss斜ʉGې䋟ΒRTV,34.9977825,135.758943
1027,ss擌@ʎ񒚖ړHUOUԒn̂ROswOrPK,34.9881522,135.7557296
1028,ss擌@ʎ񒚖ړH606Ԓn3OswOr5KC6K,34.9881522,135.7557296
1029,ss{ʉԉxV㒬541Ԓn,34.9929781,135.7494433
1030,ss{ʉԉxV㒬541Ԓn,34.9929781,135.7494433
1031,ss旧V92AILr7e,35.0034509,135.763097
1032,ss擌D167r[tH[g܏G201,34.9966237,135.7570223
1033,ss擌@ʈHQVTԂP,35.0023135,135.7609006
1034,ss撆OcQUԒn,34.9957173,135.7466671
1035,ss掛ʎlOVTXSԒn@Se,35.0028823,135.7666065
1036,ss擌@ʕ鍂604,35.0012713,135.7609799
1037,sssʎH735Ԓn1㋞sr7K,34.9887753,135.7600582
1038,ss掛ʕb{VTQR,35.0005429,135.766693
1039,ss揼ʍ䒬QWP,34.9988343,135.7633917
1040,ss掺ʈH{g480ԒnItBXlGۃr12K,35.0034462,135.7578553
1041,ssGےʕ񒟔~UTTԒnYosGۃrRF,35.0016978,135.7598652
1042,ssΔn꒬2-3,34.9914386,135.7457506
1043,sszKʏٍVRQWԒn@_PK,34.9983213,135.7586581
1044,ssHʉmIH277Ԓn,34.988017,135.7539746
1045,ss擌@ʎH524Ԓn4@pfVIswOUԊقPK,34.9881687,135.7614652
1046,ss掺ʌ܏ニⓌ266CnCcPe,34.9971921,135.7583668
1047,ss擌@ʂ܏ニ[TWX̂U,34.9967788,135.7611641
1048,ss͌ʎニZgRTSԒn̂P,34.9897927,135.7644459
1049,ssGےʎ铌H720swO邪rSK,34.9877729,135.7594968
1050,ss搼l758vXyNg͌܏202,34.9971763,135.7671491
1051,ss搼@ʉH铌H937 A}rRe,34.987316,135.7586143
1052,ssԉʎQXQԒn,34.9935537,135.7572619
1053,sssʎ铌H7351㋞sr6K,34.9887753,135.7600582
1054,ssGےʎ铌HVRTԂP@㋞sقVK-P,34.9887753,135.7600582
1055,ss扖Hʐ@H608Ԓn,34.9875909,135.7559446
1056,ss擌@ʎlq46@₳rPK,35.0029947,135.7609371
1057,ssGےʎHVRT1㋞srSK,34.9887753,135.7600582
1058,ss掺ʈHニ{g480ItBXlG5e,35.0034462,135.7578553
1059,ssGےʉHH901ٸݳިs3F,34.9858585,135.7589822
1060,ssGےʕ񒟔~UTTԒn@YosGۃrSK,35.0016978,135.7598652
1061,ss扺Ix쐼QO,34.988527,135.7526431
1062,ss擌ؒʉԉ332,35.0012678,135.7692946
1063,ssVʖkH镽쒬VUU,34.9907065,135.7570841
1064,ssGےʕ񒟔~UTTԒn@YosGۃrTe,35.0016978,135.7598652
1065,ss扺ԉ˔񒚖ڂRVT,34.9916815,135.748167
1066,ss搼@ʐʉb艮SRT|P,34.9906309,135.7549676
1067,ssGےʕ񒟔~UTTԒnYosGۃrQK,35.0016978,135.7598652
1068,ss撆y21Ԓn,34.9965853,135.7476456
1069,ss搼ؘZZg35-5,34.9934914,135.753103
1070,ssGےʎ铌HVRTԒnP,34.9887753,135.7600582
1071,ss掛ʎlOV613ԒnΏV{كr4K5K,35.0032183,135.7670906
1072,ss扖HʉGېH579-1Rr3K,34.9876739,135.7584477
1073,ss擌@ʎ񒚖ړHVPXԒn@swOSKrRF,34.9877422,135.7601337
1074,ssGےʎl鐅≮URTԒnQ@rVF,35.0025978,135.7599639
1075,ss戻HʐVPPRPVrQOQ,36.9335684,137.5021084
1076,ssGےʕ񒟔~UTTԎYosGۃrUKݎ`,35.0016978,135.7598652
1077,ss܏ʉGې풬QXOԒn@sGی܏rRF,34.9965744,135.759423
1078,ss撆V钬353,34.9964522,135.7436017
1079,ss撖FʕƉRQTԒn̂P,35.0005221,135.7507193
1080,ss敧ʒFcTXTԂQ,35.0013233,135.7496557
1081,ss撆V钬UTp[NXNFAPe,34.9965737,135.7428158
1082,ss捕ʌ܏`{590Ԓn4,34.9966615,135.7504352
1083,ss{ʎll{Q@{l{rQK,35.0033634,135.7483601
1084,ss{ʏ܏𒬂RXU,34.9979096,135.7488077
1085,ss{ʏニґ{PRQ,34.9992423,135.7493896
1086,ss搼𓌔cRRԒn@pfVIsPe,34.9917042,135.7386688
1087,ss搼؉lDQRR,35.0024972,135.7702275
1088,ssOgwOʑ{˔QڂRVT,34.9916815,135.748167
1089,ssVʎll𒬂RTQ,35.0031981,135.7563836
1090,ssGےʏニtOVOO@Ћss,34.9997919,135.7594009
1091,ss擌xʉHPԒn,34.986713,135.7522534
1092,ss擌kGےUԂU`korXrRK,34.9817794,135.7591113
1093,ss擌𐼎R11ԒnrU701,34.9828581,135.7609211
1094,ss搼𑠉PRԒnTslrrPeCQe,34.9796063,135.7528769
1095,ss擌Gے35Ԓn6Gےcn1K,34.9778359,135.7599842
1096,ss擌kGےRU|Q,34.980895,135.7609675
1097,ss搼卑XԒnP,34.9772341,135.745928
1098,ss㒹H㒲qRO,34.9703963,135.7441031
1099,ss擌acTRԂPy؃rTK,34.9838247,135.7595289
1100,ss搼tRSԒnQrnkdhktPK,34.9815136,135.7539148
1101,ss搼cPԒn,34.9762492,135.7468342
1102,ss擌𐼎RPQԒn,34.9828615,135.7605867
1103,ssgˉ@mWR,34.9723828,135.732387
1104,ss擌kGےRԒnTs@Aߎp@,34.9816502,135.7583247
1105,ss搼𓂌˒PQԂQ,34.9773283,135.7426913
1106,ss擂mOPUԒn,34.9783106,135.7388348
1107,ss擂咬RVԂT̂QsfBbNXrقRK,34.9790595,135.7403834
1108,ss擌͕ӒQRԒnPO@Pe,34.9745217,135.7593723
1109,ss搼i钬POT{nCcPe,34.9769225,135.748878
1110,ssvv258Ԓn,34.9650252,135.7147986
1111,ssvcRVUԒnPCI[sjPK,34.9615264,135.708523
1112,ssvzRVQ,34.9535038,135.7272284
1113,ssvvQڂUOԒnU,34.9607979,135.7132265
1114,ss搼J200Ԓn,34.9762142,135.7521392
1115,ssgˉ@mVn꒬PԒn,34.9811156,135.7280737
1116,ssgˉ@m14Ԓn HFقPK,34.9818709,135.7302038
1117,ssgˉ@{̓2Ԓn43K,34.985083,135.6623332
1118,ssvc336Ԓn,34.9667371,135.7051964
1119,ss擌acSOԒnUacrQK,34.9829553,135.7595371
1120,ss搼𒹋PԒnCI[jxnsn@SakuraقRK,34.9827278,135.7544554
1121,ssgˉ@ΌJRTԒnPj?rRK,34.963343,135.7253334
1122,ss擂咬QԒnQ,34.9787716,135.7424001
1123,ss擌Gے42fBiGۂPK,34.9800049,135.7609252
1124,ss擌𓌌쒬RO,34.9794603,135.7630746
1125,ss擂_UW,34.9807541,135.735702
1126,ss擌𓌌쒬Q,34.9776284,135.7630069
1127,ss擂mO23Ԓn1XNGAr2K,34.9786173,135.737855
1128,ssgˉ@엎40Ԓn1,34.9720153,135.7407351
1129,ss擌OQRԒn,34.9810293,135.7495799
1130,ssgˉ@mST,34.9689638,135.7319266
1131,ss搼JPQOQԒnP,34.9761559,135.7520502
1132,ss擂iPQԒnS,34.9775502,135.7387563
1133,ss擌𒆌쒬QQ,34.9781178,135.7618934
1134,ss搼𐛓cSԒn̂Q,34.974084,135.7469429
1135,ss擌𐼊{P,34.9828156,135.7633536
1136,ss擂mO49Ԓn2,34.9787618,135.7391038
1137,ss擂咬47Ԓn1,34.9793228,135.7426316
1138,ss㒹H쒆mؒ30,34.9678993,135.7408396
1139,ss擌SVԒnR,34.9837142,135.7580408
1140,ss擌͕ӒW,34.9712972,135.7574304
1141,ss㒹H쓃m{QTԒn,34.9648236,135.7507726
1142,ssgˉ@35Ԓn3,34.979317,135.7330561
1143,ss擂iTԒn,34.9769817,135.7386618
1144,ss搼cP|Q,34.9767895,135.7472275
1145,ss擌𖾓cRXԒn,34.9759063,135.7602452
1146,ss擌Gے(Gےcnj,34.9776169,135.7603499
1147,ssgˉ@Ό1-4,34.9679499,135.7240523
1148,ssgˉ@𒬂RSԒn,34.9783773,135.7344722
1149,ss擂vے11,34.9784677,135.7355219
1150,ss搼𓇒8,34.9764687,135.7528217
1151,sslc˒1Ԓn,34.9795426,135.7460341
1152,ss搼𓌔i钬66Ԓn,34.9791229,135.7501549
1153,ss擌𓌌쒬PV,34.9782853,135.763122
1154,ss攪ʑ{𒬂RXXԒn̂QW,34.9841942,135.7479559
1155,ss搼𓂌˒RXԒn̂T,34.9740172,135.7428143
1156,ss擌쏼mؒSV,34.9770958,135.7667378
1157,ss擌͐QRԒnA[oc[OVIPK,34.9800787,135.7646303
1158,ss搼𓇒RWԒn,34.9786591,135.7532977
1159,ss擌쒬QԒn,34.9806385,135.7614411
1160,ss擂咬ROԒnsfBbNXrPK,34.9788978,135.7398903
1161,ss攪100,34.9818665,135.7436127
1162,ss㒹H쓇c64Ԓn,34.9648767,135.7439569
1163,ssgˉ@Y23Ԓn,34.9724957,135.7285946
1164,ss擌𒆓ac11-2,34.9818425,135.7578327
1165,ss擌64Ԓn4nCCYcPTK,34.9841332,135.7569142
1166,ssgˉ@ԓ16ԒnR[|ԓ,34.9760919,135.7295159
1167,ss搼J125Ԓn3,34.9791682,135.752154
1168,ss擌𐼎R11ԒnrU@Re,34.9828581,135.7609211
1169,ssvcRVUԒnPCI[sjPK,34.9615264,135.708523
1170,ssvvSRS,34.9639875,135.7155326
1171,ssvc376d1CI[sj1061-6,34.9648309,135.7082884
1172,ssva钬RRԒn,34.9576149,135.7162187
1173,ssv1961,34.9584468,135.7214227
1174,ssvcRVU|PCI[sjPF@fBJ[,34.9615264,135.708523
1175,ssvzR8Ԓn5,34.958528,135.72334
1176,ssvzRRQW,34.9578541,135.724731
1177,ssvcRT̂TO,34.9643015,135.7054618
1178,ssvMSUXԒnsƏ,34.9514135,135.7220018
1179,ss搼𐼖mQVԒn,34.9750931,135.7508806
1180,ssE捵zm23-1,35.0854593,135.6119685
1181,ssE搼@OPSԒn@vrSK,35.0023848,135.731724
1182,ssE搼Ɍߒ˒135-2,34.9985558,135.7121543
1183,ssE搼@F40Ԓn3@₿r1K,35.0039698,135.7309437
1184,ssE搼ɓrcPԒnQVIjPK,34.992223,135.7201729
1185,ssE搼@l𔨒PԒnPP,35.0037284,135.7241338
1186,ssE搼@a蒬QP@[Е~n,34.9947069,135.7288762
1187,ssE摾`YPVOԒnvTXWF`V_wOPK,35.0112436,135.7142803
1188,ssE~ÐYQQԒnW,35.0031129,135.6969716
1189,ssE捵㒹{Mc24Ԓn1,35.0255703,135.6690378
1190,ssEꍵ㉀W|T,35.0229509,135.7049567
1191,ssEJcmPWԒnS,35.0258298,135.7221412
1192,ssE搼@R13Ԓn@}r2e,35.0033036,135.73165
1193,ssE搼Ɍߒ˒PPU,34.9982481,135.712222
1194,ssERmܔcXԒnPrǂ̃rPK,35.0106879,135.720583
1195,ssE拞kז쒬m_POԒn̂Q,35.1237705,135.642055
1196,ssE拞knJXOԒn,35.1387117,135.5930361
1197,ssE拞k{mORQԒn,35.1791571,135.6587604
1198,ssE拞k{{WOԒn̂P,35.204152,135.7199446
1199,ssE摾`gΒRԒn,35.0126529,135.7080262
1200,ssE捵V咬18Ԓn1,35.0163906,135.6806845
1201,ssE捵VVԒnP,35.020212,135.6845582
1202,ssE摾`YPWQԒnRh[V_PK,35.0110388,135.7155749
1203,ssE摾`qҒROԒnS,35.0151797,135.7013269
1204,ssEՓmUԒnTrjxrPK,35.0188061,135.7107781
1205,ssE摾`JQPԒnQX,35.0213639,135.6967173
1206,ssE摾`X12Ԓn3,35.0153475,135.7108791
1207,ssE捵㖾PVԂT,35.0141954,135.6900952
1208,ssE捵㒆ʒPRԒnRUCR[gPK,35.0144756,135.6876011
1209,ssE~Ò牺28Ԓn,34.9999088,135.7084986
1210,ssEՔn˒PTԒnPXMǏՓXQK,35.0210733,135.7052138
1211,ssE摾`kHPOԒnP,35.0207515,135.6998884
1212,ssE搼@R1Ԓn1,35.0034059,135.7328187
1213,ssE搼@F40ԒnVr302,35.0038342,135.7307992
1214,ssE~Ïc51Ԓn1,35.003683,135.7041725
1215,ssEՐXPQԒnP,35.0188224,135.7125726
1216,ssE搼@R13Ԓn@}r3e,35.0033036,135.73165
1217,ssE搼@RPԒnPfBJ@RK,35.0034059,135.7328187
1218,ssE捵猴{m㒬20Ԓn,35.0765329,135.6118618
1219,ssE拞kRJ12,35.1526493,135.6342754
1220,ssE旴RcPԒnV,35.0309117,135.7161289
1221,ssE摾`҃{13Ԓn,35.0129925,135.7097678
1222,ssE搼@PS|P,35.0008421,135.7310422
1223,ssE搼@l𔨒QPԒn̂P,35.003766,135.7229181
1224,ssE搼@RPPԒn,35.0029497,135.7321981
1225,ssE搼@ԓcQPԒn,35.0065738,135.7291848
1226,ssE搼ɐے29,34.9946555,135.7189149
1227,ssE搼@XԒn,35.0007046,135.7318065
1228,ssE搼@Ǖ25-1CI[s܏RK,34.997204,135.7270583
1229,ssE搼ɐrcPRԒn̂SSKBrPOQ,34.9920722,135.7192845
1230,ssE搼Hlニ@~a@S,35.0041923,135.7317011
1231,ssE搼ɑ咬16Ԓn27,34.9896823,135.7259481
1232,ssE搼ɓ쏯32Ԓn,34.9920868,135.7283128
1233,ssE搼ɓPS,34.9891201,135.722492
1234,ssE搼@k|@39Ԓn1,35.0020283,135.7302264
1235,ssE搼ɐ쒬17ԂW,34.9894567,135.7191141
1236,ssE搼@RV,35.0033126,135.7325555
1237,ssE搼@RV,35.0033126,135.7325555
1238,ssE搼Ɍߒ˒37-`23JhmnCc101,34.9996913,135.7143386
1239,ssE搼ɒϓcPVԒn,34.9889219,135.7270505
1240,ssE搼@L쒬PS,35.0025795,135.7179148
1241,ssE搼ɔȏUQ,34.9931144,135.722322
1242,ssE搼Ɍߒ˒65Ԓn1,34.9993342,135.7131926
1243,ssE搼@cQSԒnpfVI@PKQ,34.9980098,135.7325936
1244,ssE搼@~a@26RX26@2K,35.0050344,135.7322078
1245,ssERm15Ԓn̂V,35.0080912,135.7198842
1246,ssERmԎRPOԒn̂P,35.0051665,135.725595
1247,ssE搼@c31Ԓn2Jr2e,34.9972779,135.7323643
1248,ssE搼@~a@26-3,35.0050426,135.730311
1249,ssE搼ɓ88Ԓn,34.9962953,135.7163863
1250,ssE搼@L쒬VUA[onCc҂Pe,35.0000851,135.7180439
1251,ssE搼ɐrc38,34.9916871,135.7183501
1252,ssE搼@c9Ԓn5,35.0072722,135.7312295
1253,s{ssE搼@~a@13|9~X^[L[Y@1K1,35.0055308,135.7316843
1254,ssE搼Ɋ쒬44Ԓn,34.9971043,135.7176673
1255,ssE搼@~a@11At@r3K,35.0038549,135.7316879
1256,ssE搼@PSԒn,34.9946432,135.7327838
1257,ssE搼@ƒ10,35.0031338,135.723605
1258,ssE搼@Ǖ25Ԓn1CI[s܏3K,34.997204,135.7270583
1259,ssE搼ɐrc27-P,34.991819,135.7178558
1260,ssE搼@25ԒnŋsrPe,35.0001448,135.7323259
1261,ssE搼ɓ쏯6Ԓn,34.9916043,135.7260853
1262,ssE捵{mSW|Q,35.014192,135.6923953
1263,ssE摾`R15Ԓn2K,35.0254688,135.7011574
1264,ssE摾`R15Ԓn1K,35.0254688,135.7011574
1265,ssE摾`Y170ԒnvTXWF`V_wOPF,35.0111528,135.7142397
1266,ssERmܔcXԒnPrǂ̃rQK,35.0106879,135.720583
1267,ssE旴m쒬7Ԓn6,35.0272106,135.7194108
1268,ssEꉹˎR8,35.0287334,135.7015125
1269,ssEꍵ㉀10,35.0232808,135.7058518
1270,ssE䎺ŋUԒn̂PX,35.0264996,135.712891
1271,ssEԉɒU,35.0207947,135.7191281
1272,ssEJ~ÊԒPO|PS,35.0270738,135.7207736
1273,ssEԉؒғ쒬28Ԓn2,35.0199096,135.7232696
1274,ssEJ_m12-7,35.0276298,135.7218612
1275,ssE旴m쒬3-33,35.0265133,135.7188931
1276,ssEԉmO52,35.0202711,135.7198448
1277,ssE旴֋{T,35.030341,135.7212545
1278,ssE䎺GQR|S,35.0274159,135.716449
1279,ssEԉRO,35.0185888,135.7153527
1280,ssEԉi1-1,35.0247525,135.7247511
1281,ssE摾`SP{8-32,35.0069303,135.7035018
1282,ssERm{OPԒn,35.008965,135.7227886
1283,ssE摾`n˒2-9,35.0154768,135.7222453
1284,ssE摾`ԓQP|TX,35.0179327,135.7189793
1285,ssERmkmPX|S,35.0084411,135.7206984
1286,ssE摾`҃mPXԂPP,35.0148099,135.7198045
1287,ssE拞k㒆{m22,35.2023869,135.6368127
1288,ssE捵㒆QT,35.0184849,135.6890602
1289,ssE~Ó\RP,35.0018828,135.7049964
1290,ssE~ÖkYR̂P,35.0032631,135.7000934
1291,ssE摾`Y12Ԓn,35.0103529,135.7164257
1292,ssE捵kxQOԒn̂PQP,35.0172014,135.684805
1293,ssE捵㐅{ePOԒn,35.0464324,135.6261055
1294,ssE~ÑOc42]1rAJQER@Pe,35.0024891,135.6949203
1295,ssE捵L쒬SO|PUW,35.0153772,135.6945491
1296,ssE摾`C4-8,35.0112465,135.7104985
1297,ssE~Ì㓡XԒn̂V,35.0043959,135.701776
1298,ssE摾`a򎮕S|PR,35.0171141,135.7145577
1299,ssE捵VxQԒn,35.0175292,135.681696
1300,ssE摾`Y170ԒnvTXWF`V_wOPK,35.0112436,135.7142803
1301,ssE摾`14Ԓn,35.0136326,135.7041238
1302,ssEՔn˒PTԒnPXMǏՓXQK,35.0210733,135.7052138
1303,ssE~ÐKa28Ԓn,35.0012319,135.6939211
1304,ssE摾`14Ԓn109,35.0132716,135.7026274
1305,ssE捵L쒬2622,35.0202028,135.6917592
1306,ssE~Ò㒬PVԒn,35.0009202,135.7061299
1307,ssE摾`14-125,35.0136726,135.7030591
1308,ssE摾`I31,35.013898,135.7071749
1309,ssE摾`m䒬31Ԓn,35.0164209,135.7094085
1310,ssE摾`䏊m7Ԓn10,35.0141497,135.6976383
1311,ssE~ÍSVԒn,35.0024869,135.7082089
1312,ssE捵_mؒPO|PO,35.016222,135.694764
1313,ssE捵VkHPVԒn,35.0166418,135.6774526
1314,ssE捵VkHPV,35.0166418,135.6774526
1315,ssE捵JQPԒn,35.0146047,135.6967254
1316,ssE摾`XQPԒn̂UV,35.01385,135.7116185
1317,ssE捵V{QO,35.020105,135.6806419
1318,ssE捵c11Ԓn8,35.0139891,135.6851262
1319,ssE捵L䏊̓RV|T,35.0211503,135.6905467
1320,ssE捵V|ÛR,35.019793,135.6867204
1321,ssE摾`S{W|QOP,35.0071428,135.7040249
1322,ssE~ÐKaSP̂PQ,35.0007533,135.6947212
1323,ssE~ÖkYPXԒnX,35.0045616,135.6994161
1324,ssE摾`X21,35.0140749,135.71175
1325,ssE摾`jؒPP|P,35.0135425,135.7065252
1326,ssE~Óc341,35.0028197,135.704403
1327,ssE捵߉ޓOː쒬ŜW,35.020703,135.6773914
1328,ssE摾`m䒬16Ԓn2,35.0159539,135.7111165
1329,ssE捵J8Ԓn60,35.0154311,135.6990128
1330,ssE摾`Y181ԒnpeB[i`V_PK,35.011201,135.715651
1331,ssE捵c365,35.0118231,135.6880591
1332,ssE~ÐΓ咬QT,35.0017222,135.7058644
1333,ssE~Ì㓡734,35.0038534,135.702708
1334,ssE摾`XOPÔP,35.0125776,135.7127975
1335,ssE捵c365,35.0118231,135.6880591
1336,ssE~ÑOcUTԒn̂S,35.0025049,135.6938367
1337,ssE摾`m䒬RXԒnW,35.0177612,135.7103254
1338,ssE摾`RPR|R,35.016301,135.6996221
1339,ssEՓmQQ|R,35.0201987,135.709213
1340,ssE摾`xr15Ԓn9,35.0232191,135.6966091
1341,ssE~ÓcPԒn,35.0026958,135.7056258
1342,ssE捵㒆ʒ13Ԓn,35.0146076,135.6873242
1343,ssE~Ñ꒬QO,34.9991344,135.6946799
1344,ssE摾`SU,35.0129724,135.7039279
1345,ssE摾`䓡mؒV,35.0154511,135.7228117
1346,ssE捵㒹{쒬PQ|WO,35.0262251,135.6648142
1347,ss拞l170Ԓn1ꂽr3K,34.9331295,135.764526
1348,ss操Rɉꐼ30-1,35.1777432,136.9283108
1349,ss|c@146Ԓni2F),34.951219,135.7558704
1350,ssΓc32-2,34.942914,135.8069642
1351,ss|c쌴50-1@rcr3K,34.9567563,135.7602625
1352,ss1-360-1,34.9332846,135.7638794
1353,ss擹풬149-3@RNjbNr2K,34.93236,135.7658305
1354,ssV4461Ԓn,34.9325478,135.7634633
1355,ss拞씪ڂPPVԒn̂P,34.9400341,135.7647771
1356,ss操R{20Ԓn12,34.9287374,135.7853647
1357,ss拞k61,34.9391826,135.7650173
1358,ss操RRm32@MOMOeX1F,34.937092,135.794933
1359,ss操Ra40ԒnP,34.9331258,135.7860924
1360,ss擹풬149Ԓn3RNjbNr1e,34.93236,135.7658305
1361,ss拞8101-1Rr3F,34.9399337,135.7650404
1362,ss操RRm32ԒnMOMOeX2K,34.937092,135.794933
1363,ss操Rz쒬544,34.9407579,135.7684194
1364,ss擹풬154Ԓn3rG[1e,34.9319118,135.7660555
1365,ss|cc{XWԒn,34.9487953,135.7536005
1366,ss[568Ԓn5,34.9073657,135.7189646
1367,ss旄{173Ԓn27,34.9068511,135.7186102
1368,ss|c378ԒnpfVI[@1,34.950842,135.759135
1369,ss旄r㒬151Ԓn19,34.9055107,135.7201942
1370,ss旄1077Ԓn,34.8973757,135.7095888
1371,ss[蒬601Ԓn,34.9491055,135.7708686
1372,ss[Yl21Ԓn,34.9620269,135.7674447
1373,ss[1-1,34.9538827,135.7756141
1374,ss[ዴl359Ԓn1,34.957847,135.7708887
1375,ss拞单132Ԓn1,34.9346156,135.7646725
1376,ss[oH~23Ԓn6Ji[g[X2efBJXNFA,34.9463594,135.7638242
1377,ss|ckOcY45ԒnACr[Er1K,34.9596377,135.7595173
1378,ss[oH~23ԒnJi[g[2K,34.9468424,135.7633753
1379,ss[@r928Ԓn2,34.9506869,135.7676587
1380,ss[ዴ5322-1@AKr3K,34.9584584,135.7713827
1381,ss操RRm32MOMOeX1K,34.9385107,135.7953561
1382,ssHtÐ쒬73Ԓn1,34.9271295,135.7237135
1383,ss操R{84Ԓn11,34.9317672,135.7756407
1384,ss[㉡꒬PÔTV,34.9704679,135.7688343
1385,ss[o23,34.9732293,135.7730176
1386,ssmRPP,34.9574441,135.8137374
1387,ss헎ےVPԒn,34.9490836,135.8180282
1388,ssnoXԒn,34.9361931,135.8138928
1389,ss퍂30-15,34.9498882,135.8102214
1390,ss퍇꒬PWԒn̂PP,34.9425651,135.8120078
1391,ssΓc59-1,34.939615,135.8059864
1392,ssVPԒnRQ,34.9578876,135.8152906
1393,ss\QW,34.9483444,135.8095864
1394,ss샖PԒn̂Q,34.9491383,135.8132877
1395,ss퍂TVԒnW,34.9498807,135.8093615
1396,ss揬I㓡UԒn̂Q,34.9458948,135.804831
1397,ssORX21Ԓn,34.9404364,135.8135604
1398,ss햊mSQ|U,34.940455,135.7491556
1399,ssΓc20-11,34.9430798,135.8083511
1400,ss揬IX{QOԒn̂POT,34.9448651,135.8000047
1401,ssvےPWԒnP,34.9537381,135.8118853
1402,ss퍂30-1-2-22pZIE_CS[1K,34.9509495,135.8113012
1403,ss팮12|1,34.9457493,135.8089916
1404,"sscj72-1,73-1,75,4-393Ԓn",34.9298098,135.813109
1405,ss퉺[RRU,34.9478765,135.8199648
1406,ssa28Ԓn20,34.9481868,135.8156872
1407,ssVJPS|P,34.943864,135.8074926
1408,ss퍂30Ԓn3AbVr2F,34.9499917,135.8106666
1409,ss쐼j4Ԓn3,34.9375087,135.8100013
1410,ss퍂30Ԓn1pZI_CS[قQe,34.9509495,135.8113012
1411,ss퍂30Ԓn1-2-34߾޲۰1K,34.9509495,135.8113012
1412,ss퍂30Ԓn1pZI_CS[قQF,34.9509495,135.8113012
1413,ss操RRm6638,34.9413578,135.7952901
1414,ss操R哇RWԒn̂Q,34.9234488,135.7907222
1415,ss招569Ԓn,34.9318652,135.763934
1416,ssH649,34.9450872,135.7602796
1417,ssVSڂSUT,34.9323189,135.7631079
1418,ssO757Ԓn1,34.9271101,135.757093
1419,ss擌l쒬662Ԓn,34.9278362,135.7584485
1420,ssmےRU,34.921661,135.7717494
1421,ssVTڂTOT,34.9334166,135.7630065
1422,ssQڂRSQԒn,34.9345157,135.7638259
1423,ssV\364Ԓn,34.9396955,135.7635958
1424,ss操R{ւPX|PQ,34.936485,135.757799
1425,sshRRR,34.9314432,135.7576995
1426,ssP풬RŜU,34.9244973,135.7711519
1427,ssmےPTPԂTR,34.916718,135.776428
1428,ss操R{ĂPXԒn̂QQ,34.9283079,135.784927
1429,ss操RQS|RP,34.9324192,135.7914846
1430,ss操Rї吼SVԒnP,34.9365614,135.7678549
1431,ssk[44Ԓn7,34.9453098,135.7547924
1432,ssmےRUS|PX,34.9192475,135.772778
1433,ss扺HUԒn,34.9354943,135.7430334
1434,ss擌蒬VURԒn,34.9331589,135.7615483
1435,ss操R哇RWԂQ,34.9234488,135.7907222
1436,ss擌l쒬670J[Tl1e,34.9275187,135.7581423
1437,ss扺HZ109Ԓn,34.9347831,135.7518424
1438,ss操Rɉ꓌82Ԓn,34.9386186,135.7678482
1439,ssVUڂSVT,34.9349722,135.7630242
1440,ssVPOڂRUS|S,34.9397844,135.7635693
1441,ssVT507RA2000A,34.9332678,135.7631499
1442,ss撆kmQUԒn,34.9499535,135.7500598
1443,ss[PQVԒn,34.93267,135.7598293
1444,ss|c@ROS,34.9509065,135.7525613
1445,ss拞XڂSOԒn,34.9428031,135.7653547
1446,ss操RQT,34.933035,135.7940223
1447,ss扺HAn150Ԓn,34.9320546,135.7501016
1448,ss旼֒4291Ԓn,34.9328208,135.7641139
1449,ss]155ԒnXbgR103,34.9318487,135.765804
1450,ss操RP6,34.9323181,135.7718312
1451,ss㒬369Ԓn2,34.9359124,135.7583535
1452,ss엢26Ԓn3,34.9465205,135.8146918
1453,ss[ēc~12Ԓn1 t[@X1K,34.9487519,135.7613726
1454,ss1891,34.9166664,135.784468
1455,ss[TJUR|P,34.9497387,135.7758563
1456,ss捡677Ԓn1,34.935007,135.7617859
1457,ss[Y6-53-1,34.9583455,135.7660884
1458,ssՒSOԒnR,34.9306802,135.7680193
1459,ssѓq13Ԓn,34.926518,135.7613251
1460,ss鏠39Ԓn2,34.9360208,135.7614343
1461,ssO318,34.9360079,135.7638758
1462,ssP풬37Ԓn2,34.9255619,135.7704318
1463,ss擌PXW,34.9355329,135.7603922
1464,ss\589Ԓn2,34.9293511,135.7591188
1465,ss꒬WQ|V,34.9198301,135.7788404
1466,ssÓc2341,34.9176618,135.7627224
1467,ss扺HkmVOԒn,34.9405144,135.7486914
1468,ss[ꉮ~24Ԓn26,34.9481293,135.7569818
1469,ss拞k714Ogr2K,34.9396489,135.7652303
1470,ss{ے20mA[YA[NόPK,34.9229823,135.7720833
1471,ss操R2Ԓn3,34.930788,135.7811486
1472,ss操R}O䒬RR̂P,34.9335065,135.7709619
1473,ss扺HO126Ԓn,34.9328823,135.7461254
1474,ssH670Ԓn,34.9453587,135.7586063
1475,ss擌sPROhnCcQe,34.929627,135.7674638
1476,ss摺㒬RXTԒn,34.9320301,135.7579441
1477,ss[ꉮ~14Ԓn16,34.948056,135.7576459
1478,ss操R{ĂPU|TV,34.929315,135.7851161
1479,ss拞WڂPOP|P@RrQF,34.9399337,135.7650404
1480,ss拞8101Ԓn5,34.9399468,135.7652646
1481,ss操R16Ԓn,34.9312188,135.7814968
1482,ssω210Ԓn1vV[hR˃r1e,34.9331468,135.7653728
1483,ss操R哇RW|TQW,34.9254719,135.7905964
1484,ss操R哇38-530,34.9253155,135.7902142
1485,sslcJr14-27,34.9179224,135.7785219
1486,ss͌VQ̂T,34.9223732,135.7749709
1487,ssmےPTP|SR,34.9153353,135.7703357
1488,ss㒬602,34.9314822,135.7621587
1489,ss操RSQ|S,34.9348034,135.7947132
1490,ssPڂRTO|P,34.933387,135.7641321
1491,ss|c53Ԓn,34.9532879,135.7535965
1492,ssmےPTP|SS,34.9155938,135.7703373
1493,ssmےPSQԒn̂PQ,34.9147628,135.7706352
1494,ssUPQSԒnPT,34.9373372,135.760935
1495,ssVтPU,34.9156519,135.763343
1496,ssmےPTPԒn̂Q,34.917448,135.7726865
1497,ssVUڂSVO|T,34.9344319,135.7635109
1498,ssÓc58-49,34.9210828,135.765772
1499,ssѓn꓇RQ,34.9078861,135.7253441
1500,ss旄1055Ԓn,34.8976326,135.7122843
1501,ss旄r㒬136-16,34.9044934,135.7193816
1502,ss旄Ò47Ԓn,34.9030304,135.720562
1503,ss[쌴TP|T,34.9651469,135.7624065
1504,ss旄283Ԓnn斧^ʗ{Vlz[3K,34.8986819,135.7153632
1505,ss퍂21Ԓn6,34.9499883,135.811121
1506,ssn707Ԓn,34.9474943,135.7693424
1507,ss[ዴPOڂPVP,34.964002,135.7707649
1508,ss|c쒬XR,34.9530182,135.7599688
1509,ss[ዴSڂRSWԒn,34.9574932,135.7713254
1510,ss[ɊyVTX,34.9557622,135.7706012
1511,ss[t`PS|Q,34.9552906,135.7607802
1512,ss|crPQO,34.9633378,135.7575875
1513,ss[TJPP,34.9480118,135.7725779
1514,ss[kVUUPԒn,34.9479163,135.7694451
1515,ss[ዴܒڂRQWԒn,34.9590348,135.771035
1516,ss[ዴ㒚ڂPWS|Q,34.9629308,135.7712596
1517,ss[쌴RPԒn̂V,34.968329,135.7629705
1518,ss[xcPԒn,34.9567828,135.7707504
1519,ss|c쒬20-8,34.9553812,135.7606166
1520,ss[׌OXONjbNrQK,34.9672229,135.7707681
1521,ss[TJÌ䍁TXԒnUOԒn,34.9436245,135.7879701
1522,ss[XP,34.9487507,135.7743848
1523,ss[ēc~QR|XT,34.9472027,135.7620644
1524,ss[RPOOR|P,34.9483922,135.7667706
1525,ss[P쒬QPԒnt@Cu[ׂPK,34.9676596,135.7685647
1526,ss[XRԒn̂P,34.9536967,135.7727595
1527,ssn721Ԓn,34.9477392,135.7682269
1528,ss|c^ؒRO,34.9555653,135.752987
1529,ss[m⒬RV|P,34.9492363,135.7604621
1530,ss|c쌴366Ԓn,34.9597268,135.7609468
1531,ss[ɒBWWԒn̂SP,34.9563547,135.7729853
1532,ss[ȐXPQ|PR,34.9621794,135.7694709
1533,ss[XRWԒn,34.9524488,135.7714843
1534,ss[oH~23Ԓn6Ji[g[2K@fBJEXNFA,34.9468424,135.7633753
1535,ss揬IX{U|P,34.9448864,135.8014139
1536,ss[FiUUU|QV,34.9493183,135.7681842
1537,ss[TJ~XOԒn,34.9457519,135.778844
1538,ss[91,34.9544335,135.7722765
1539,ss[גVSTԒn,34.9680595,135.7710673
1540,ss[̚⒬QW,34.964499,135.770821
1541,ss[mؒSPԒnp[nCcCirPO,34.9685125,135.7679744
1542,ss[쌴1-1Rg[nCcׂb112,34.9692833,135.7636128
1543,ss[JUXԒnP,34.9525948,135.7825447
1544,ss[˖{UVԒn,34.9643659,135.7655027
1545,ss[xc10ԒnP,34.9572841,135.7694094
1546,ss[z㉮~17Ԓn5,34.94926,135.764375
1547,ss[׌O90NjbNr1e,34.9672229,135.7707681
1548,ss[TJMQQ,34.941052,135.7843707
1549,ss[ዴk꒚460Ԓn1,34.9537983,135.7715374
1550,ss[V䒬155Ԓn1,34.9499656,135.7614016
1551,ss[͖ؒ38Ԓn1|[21-102,34.9546262,135.7725803
1552,ss|cvے19Ԓn1TEBXeA1e,34.9633658,135.7614203
1553,ss[ዴ3405Ԓn1,34.9560656,135.7711381
1554,ss[xc10-1@̐X[YZ^[2F,34.9568517,135.7686463
1555,ss|c쒬WUԒnW,34.9529337,135.7593706
1556,ss|cm䒬156Ԓn,34.9568553,135.7571504
1557,ss[\㌬TSX̂T,34.950801,135.7702661
1558,ss[ዴ10157Ԓn2,34.9648387,135.770845
1559,ss[k@rXORԒnP,34.951678,135.7679382
1560,ss[Y74Ԓn,34.9573839,135.7636345
1561,ss[@r928Ԓn7,34.9503032,135.7679942
1562,ss[ዴk1460-1iׯޕዴX2Kj,34.9538084,135.7715128
1563,ss|c㒬PRUc@BГ,34.9659222,135.7538516
1564,ss|c㒬PRW,34.9649831,135.7553574
1565,ss扺H~ʓc24Ԓn205,34.9326982,135.7422848
1566,ssv{5Ԓn8,34.9450458,135.7324903
1567,ssv䓌QPT|Q,34.9351486,135.7282952
1568,ssHtH쒬581Ԓn,34.9362243,135.7207186
1569,ssvX̋{P|RP,34.9400755,135.7326302
1570,ssvX̋{QԒn̂WR,34.9405227,135.7308464
1571,ssHtu128-1}VtWU1-B,34.9313246,135.7257303
1572,ssvX̋{15|23,34.9332414,135.7253376
1573,ssv䓌1-55,34.9386175,135.731809
1574,ssv{QԒn̂X,34.9446521,135.7335406
1575,ssv䓌214Ԓn17,34.9348565,135.7281558
1576,ssv䓌1Ԓn4,34.9401162,135.7329061
1577,ss[JPQ,34.9643111,135.763939
1578,ss卂PT|P,34.9578617,135.8219876
1579,ss操R哇67-22,34.9267813,135.7854834
1580,ss拞swj,34.9831972,135.6793012
1581,ss쓇L쒬PUԒn,34.9793762,135.7004649
1582,ss匴쐼|̗PڂPUԒn,34.9570827,135.6720243
1583,ss匴쓌J񒚖5Ԓn9,34.9635008,135.6752845
1584,ss匴쓌JQڂT|W,34.962407,135.6759472
1585,ss}PԒnUPO,34.9655378,135.6777632
1586,ss}VтTڂPԒnV,34.9676353,135.6677704
1587,ssˑ}RSڂRQԒnQj⒆rQF,34.9839543,135.666308
1588,ss}12Ԓn25,34.9733865,135.6658513
1589,ssRclmؒ12Ԓn2,34.9856288,135.6928128
1590,ssjFPQUԒn,34.9802457,135.7022095
1591,ssjmPWQԒn,34.9900616,135.7028366
1592,ssjXPԒnPOU,34.9868592,135.693148
1593,ssjQXԒnPO,34.9814144,135.6981958
1594,ss扺×ѓʎᒬ31ԒnA30Ԓn,34.9757602,135.7137953
1595,ss쓇㒬3GNZBj1F,34.9775888,135.7061704
1596,ss쓇L쒬WԒn,34.9793354,135.7013464
1597,ss쓇mؖ{T̂V,34.9736615,135.7052873
1598,ssj엢41Ԓn75@1e,34.9801242,135.7047677
1599,ssj엢PQԒn,34.98113,135.7038613
1600,ss扺×ѓʎᒬRVԒnyAX×тRe,34.9749728,135.7136059
1601,ssjcURjNjbNrRF,34.9922114,135.7033521
1602,ssjcURjNjbNrQF,34.9922114,135.7033521
1603,ss扺×ѓʎᒬ37ԒnyAX×тQF,34.9749728,135.7136059
1604,ssjFRWԂP,34.9812856,135.7021733
1605,ssjXQVԒn̂P,34.9851501,135.6936724
1606,ssRcyX|PN[o[RPOT,34.9895534,135.6909272
1607,ss揼嗘PPԒnT,34.9909135,135.6922014
1608,ssjc63,34.9922114,135.7033521
1609,ssjF146@OV[YjRe,34.9797129,135.7007182
1610,ss揼嗘11Ԓn5fBJXNGAU2K,34.9907585,135.6922844
1611,ss쓇L쒬QԒn,34.9794247,135.7019306
1612,ss˒˃mzPVԒnP,34.9791844,135.6902035
1613,ssj؃mSOԒnPP,34.9812949,135.7061017
1614,ss匴쓌JQ|P|Q,34.9641907,135.6749444
1615,ss}B|2Ԓn32,34.9761904,135.6672359
1616,ss匴㗢j15Ԓn13,34.9474985,135.6867106
1617,ss}VђlڂQԒn,34.9692949,135.6697565
1618,ss}Vђ6-15-8,34.9663698,135.6665638
1619,ss}Vђ52Ԓn,34.9690745,135.6675912
1620,ss匴쐼|̗PڂPVԒn,34.9570625,135.6718653
1621,ss}VђSڂPԒn,34.9692987,135.6695908
1622,ss}앟QڂPRԒn̂PQ,34.9556768,135.6860753
1623,ss匴㗢jRԒnR,34.9502549,135.6880936
1624,ss}앟OڂVԒn̂W,34.9568423,135.6845536
1625,ss匴΍쒬QTUԒnP,34.9504897,135.6537917
1626,ss匴㗢T|PS,34.9467765,135.6896252
1627,ss}kB|1ڂQԒn,34.9882932,135.6545637
1628,ss}kB|PڂQP|QO,34.9887053,135.6566839
1629,ss匴HRXԒn1,34.952816,135.6746328
1630,ss}kQڂQV|P,34.9599047,135.6850903
1631,ss匴㗢PSԒnW,34.9474584,135.691749
1632,ss}kOڂQ|PO,34.9598668,135.6824189
1633,ss}RV-72GfYsPK,34.9705131,135.6749755
1634,ss}k񒚖12-1,34.9624579,135.6825987
1635,ss匴΍쒬256Ԓn1,34.9504897,135.6537917
1636,ss}앟QڂPO|P,34.9569323,135.6867513
1637,ssˑ}Rl24Ԓn1,34.9857407,135.6676874
1638,ssˑ}R527Ԓn3,34.9829474,135.6658369
1639,ss쓇㒬51|101,34.9741704,135.7068402
1640,ssRc46Ԓn2CtECs1K,34.9824138,135.6837857
1641,ss쓇ʓRS,34.9753211,135.7014837
1642,ssjP|Sԍn,34.9906581,135.6992671
1643,ssj؃m33Ԓn14,34.9801425,135.7075555
1644,ss쓇qSS,34.9732996,135.696867
1645,ss쓇kXV|Q,34.9791785,135.7034878
1646,ss~ȃmCPOԒnSQ,34.9713389,135.6938888
1647,ss쓇L쒬31Ԓn,34.9790531,135.7002034
1648,ssjOm{80Ԓn1,34.9876832,135.6970754
1649,ssj엢RT̂U,34.9802386,135.7040961
1650,ssjPW,34.9841118,135.6999384
1651,ssj㓤cRQ,34.9838615,135.7053112
1652,ssj30]4,34.9806801,135.6980579
1653,ssjPU|Q,34.979698,135.6979113
1654,ssjOm{66-2,34.9873644,135.6959926
1655,ss揼Ǐ㒬PWԒn̂PU,34.9970142,135.6852155
1656,ssjOm{60Ԓn,34.9874161,135.6970219
1657,ssjFPRԒnjI[GXvUrQOR,34.9797257,135.7018539
1658,ss揼嗘11|1fBJEXNGA2K2|a,34.9907585,135.6922844
1659,ssjX㒬PXԒn̂S,34.9900518,135.6945006
1660,ss揼؂̑]58|15,34.9999247,135.6849591
1661,ss~zPR|QEGXg|CgPe,34.9729944,135.6943834
1662,ss揼嗘PP|PfBJEXNGAPK,34.9907585,135.6922844
1663,ssjF140ԒnCr4K,34.9797131,135.701177
1664,ssj33Ԓn,34.9902176,135.6986953
1665,ss쓇ZmؒURԒnPfBL[uRK,34.9638896,135.7025357
1666,ss쓇RԒn,34.9729268,135.7014485
1667,ss쓇46|3|a,34.9745608,135.7027109
1668,ssjFXP|S,34.9806953,135.7006933
1669,ssˍaYQUԒnPS,34.9792027,135.6937888
1670,ssjkmUVԒn,34.9940613,135.6991732
1671,ss쓇L쒬53jwVr1F,34.9784326,135.7023322
1672,ssj쒬TQԒn,34.9774155,135.7130388
1673,ss扺×ѓʎᒬ32,34.9760947,135.7139485
1674,ssj15-1,34.9850005,135.7009065
1675,ss쓇L쒬17ԒncCNR[gjiUj,34.9790481,135.7009307
1676,ss쓇㒬10Ԓn,34.9774477,135.7064168
1677,ssj㌴VQ|PR,34.9831889,135.6972992
1678,ss쓇L쒬TOԒnPFORCErTe,34.9790137,135.702155
1679,ss~J21-1,34.9706537,135.6840322
1680,ssˍaYQUԒn,34.9791124,135.6934691
1681,ssj엢SPԒnVT@QK,34.9797713,135.7047935
1682,ssRc46Ԓn,34.9825614,135.6846353
1683,ss扺×ѐ|4Ԓn̂Q,34.9740954,135.7065943
1684,ss~_OQP,34.9712003,135.6903191
1685,ss~˂PXԒnU,34.9698557,135.6949982
1686,ssj{m㒬33-4T[XNGA1K,34.990488,135.6963313
1687,ssjk쒬WP|Q,34.9790871,135.7133001
1688,ssjF77|1GAjr207,34.980886,135.7023503
1689,ss쓇L쒬44-1QN@^P_@vP,34.9789828,135.7013274
1690,ssjcQRX,34.9929602,135.7041793
1691,ss쓇KxSP|X,34.9783577,135.6980763
1692,ssj엢SP|RTjrPK,34.9797952,135.7054242
1693,ss~˂PU|PQ,34.9701912,135.6946744
1694,ssj{m㒬PԒn,34.9902234,135.6979893
1695,ssjF146OV[YjQe,34.9797129,135.7007182
1696,ss揼嗘11Ԓn1fBJXNGAQ|A,34.9907585,135.6922844
1697,ssjFPRRjI[GXvUrPOR,34.9797257,135.7018539
1698,ssjOm{73Ԓn4,34.9889102,135.6977696
1699,ssj؃m1116,34.9798379,135.7063051
1700,ss旒RJҎqRW|U,35.006305,135.6834966
1701,ss匴OP̂P,34.9682405,135.6226797
1702,ss旒RtRW|U,35.002242,135.6854108
1703,ss旒R{mOP|R,35.0014069,135.685613
1704,ssj엢PV@~[}jTK,34.9805633,135.7031269
1705,ss扺×юŃm{PV,34.9732932,135.7116363
1706,ss旒R{mOP̂R,35.0014069,135.685613
1707,ssRcL˒UԒnPW,34.9815534,135.6908668
1708,ssjF59,34.9810975,135.6998496
1709,ss}VђRڂPԒn,34.9682488,135.6717629
